% program   : RTKPOST ver.2.4.2
% inp file  : D:\Mestrado\GE\TP3\Trabalho\GUAD1100.19D
% inp file  : D:\Mestrado\GE\TP3\Trabalho\brdc1100.19n
% inp file  : D:\Mestrado\GE\TP3\Trabalho\igs20496.sp3
% inp file  : D:\Mestrado\GE\TP3\Trabalho\igs20496.clk
% obs start : 2019/04/20 00:00:00.0 GPST (week2049 518400.0s)
% obs end   : 2019/04/20 23:59:30.0 GPST (week2049 604770.0s)
% pos mode  : ppp-kinematic
% solution  : combined
% elev mask : 10.0 deg
% dynamics  : off
% tidecorr  : on
% tropo opt : est ztd
% ephemeris : precise
% antenna1  :                       ( 0.0000  0.0000  0.0000)
%
% (lat/lon/height=WGS84/ellipsoidal,Q=1:fix,2:float,3:sbas,4:dgps,5:single,6:ppp,ns=# of satellites)
%  GPST                  latitude(deg) longitude(deg)  height(m)   Q  ns   sdn(m)   sde(m)   sdu(m)  sdne(m)  sdeu(m)  sdun(m) age(s)  ratio
2019/04/20 00:00:00.000   40.536489007   -7.266412656  1082.3648   6  10   0.0196   0.0259   0.0517   0.0132  -0.0085  -0.0125   0.00    0.0
2019/04/20 00:00:30.000   40.536489043   -7.266412729  1082.3746   6  10   0.0314   0.0328   0.0749   0.0170  -0.0129  -0.0187   0.00    0.0
2019/04/20 00:01:00.000   40.536489151   -7.266412460  1082.2889   6  10   0.0499   0.0455   0.1139   0.0273  -0.0169  -0.0283   0.00    0.0
2019/04/20 00:01:30.000   40.536489152   -7.266412554  1082.2875   6  10   0.0701   0.0604   0.1571   0.0382  -0.0194  -0.0388   0.00    0.0
2019/04/20 00:02:00.000   40.536489149   -7.266412478  1082.2732   6  10   0.0905   0.0760   0.2013   0.0491  -0.0191  -0.0495   0.00    0.0
2019/04/20 00:02:30.000   40.536489041   -7.266412725  1082.3023   6  10   0.1104   0.0915   0.2452   0.0595  -0.0151  -0.0601   0.00    0.0
2019/04/20 00:03:00.000   40.536488992   -7.266412930  1082.3523   6  10   0.0901   0.0756   0.2009   0.0486  -0.0116  -0.0488   0.00    0.0
2019/04/20 00:03:30.000   40.536488932   -7.266412777  1082.3670   6  10   0.0697   0.0599   0.1566   0.0375  -0.0091  -0.0376   0.00    0.0
2019/04/20 00:04:00.000   40.536488997   -7.266412626  1082.3369   6  10   0.0497   0.0449   0.1136   0.0267  -0.0088  -0.0268   0.00    0.0
2019/04/20 00:04:30.000   40.536488987   -7.266412544  1082.3462   6  10   0.0312   0.0322   0.0745   0.0166  -0.0091  -0.0168   0.00    0.0
2019/04/20 00:05:00.000   40.536488995   -7.266412662  1082.3514   6  10   0.0195   0.0247   0.0507   0.0123  -0.0072  -0.0109   0.00    0.0
2019/04/20 00:05:30.000   40.536489067   -7.266412798  1082.3098   6  10   0.0314   0.0321   0.0743   0.0167  -0.0073  -0.0163   0.00    0.0
2019/04/20 00:06:00.000   40.536488933   -7.266412896  1082.3110   6  10   0.0493   0.0445   0.1126   0.0259   0.0070  -0.0261   0.00    0.0
2019/04/20 00:06:30.000   40.536488868   -7.266412856  1082.2993   6  10   0.0684   0.0588   0.1539   0.0355   0.0181  -0.0374   0.00    0.0
2019/04/20 00:07:00.000   40.536488678   -7.266413245  1082.2843   6  10   0.0870   0.0733   0.1950   0.0445   0.0277  -0.0489   0.00    0.0
2019/04/20 00:07:30.000   40.536488741   -7.266413411  1082.3078   6  10   0.1046   0.0874   0.2348   0.0527   0.0372  -0.0604   0.00    0.0
2019/04/20 00:08:00.000   40.536488856   -7.266413234  1082.3256   6  10   0.0868   0.0728   0.1939   0.0441   0.0320  -0.0482   0.00    0.0
2019/04/20 00:08:30.000   40.536488923   -7.266412934  1082.3304   6  10   0.0682   0.0582   0.1527   0.0348   0.0251  -0.0363   0.00    0.0
2019/04/20 00:09:00.000   40.536489040   -7.266412789  1082.3313   6  10   0.0492   0.0439   0.1116   0.0253   0.0166  -0.0247   0.00    0.0
2019/04/20 00:09:30.000   40.536489114   -7.266412738  1082.3225   6  10   0.0314   0.0317   0.0739   0.0162   0.0073  -0.0141   0.00    0.0
2019/04/20 00:10:00.000   40.536488922   -7.266412672  1082.3711   6  10   0.0208   0.0251   0.0513   0.0095   0.0036  -0.0065   0.00    0.0
2019/04/20 00:10:30.000   40.536488929   -7.266412858  1082.3401   6  10   0.0312   0.0314   0.0734   0.0155   0.0084  -0.0138   0.00    0.0
2019/04/20 00:11:00.000   40.536488772   -7.266413156  1082.2993   6  10   0.0484   0.0435   0.1099   0.0241   0.0191  -0.0254   0.00    0.0
2019/04/20 00:11:30.000   40.536488608   -7.266413206  1082.3436   6  10   0.0661   0.0572   0.1481   0.0320   0.0300  -0.0382   0.00    0.0
2019/04/20 00:12:00.000   40.536488446   -7.266413583  1082.3135   6  10   0.0830   0.0709   0.1851   0.0391   0.0406  -0.0508   0.00    0.0
2019/04/20 00:12:30.000   40.536488518   -7.266413912  1082.2965   6  10   0.0990   0.0841   0.2204   0.0455   0.0510  -0.0624   0.00    0.0
2019/04/20 00:13:00.000   40.536488564   -7.266413534  1082.2858   6  10   0.0829   0.0707   0.1849   0.0385   0.0431  -0.0507   0.00    0.0
2019/04/20 00:13:30.000   40.536488757   -7.266413168  1082.2571   6  10   0.0659   0.0569   0.1477   0.0311   0.0340  -0.0381   0.00    0.0
2019/04/20 00:14:00.000   40.536488863   -7.266412902  1082.2721   6  10   0.0483   0.0432   0.1097   0.0231   0.0237  -0.0251   0.00    0.0
2019/04/20 00:14:30.000   40.536488927   -7.266412709  1082.3270   6  10   0.0312   0.0307   0.0734   0.0155   0.0121  -0.0124   0.00    0.0
2019/04/20 00:15:00.000   40.536488963   -7.266412783  1082.3296   6  10   0.0194   0.0245   0.0512   0.0112   0.0052   0.0061   0.00    0.0
2019/04/20 00:15:30.000   40.536488877   -7.266412808  1082.3615   6  10   0.0305   0.0308   0.0725   0.0154   0.0132  -0.0133   0.00    0.0
2019/04/20 00:16:00.000   40.536488878   -7.266413007  1082.3903   6  10   0.0470   0.0427   0.1071   0.0215   0.0245  -0.0269   0.00    0.0
2019/04/20 00:16:30.000   40.536488776   -7.266413204  1082.3611   6  10   0.0635   0.0559   0.1419   0.0276   0.0362  -0.0407   0.00    0.0
2019/04/20 00:17:00.000   40.536488921   -7.266413580  1082.3370   6  10   0.0793   0.0691   0.1755   0.0331   0.0478  -0.0530   0.00    0.0
2019/04/20 00:17:30.000   40.536488888   -7.266414022  1082.4064   6  10   0.0945   0.0819   0.2078   0.0386   0.0595  -0.0636   0.00    0.0
2019/04/20 00:18:00.000   40.536488831   -7.266413856  1082.3835   6  10   0.0792   0.0690   0.1752   0.0325   0.0493  -0.0527   0.00    0.0
2019/04/20 00:18:30.000   40.536488879   -7.266413598  1082.3528   6  10   0.0633   0.0558   0.1415   0.0265   0.0386  -0.0405   0.00    0.0
2019/04/20 00:19:00.000   40.536488848   -7.266413208  1082.3602   6  10   0.0468   0.0426   0.1068   0.0203   0.0273  -0.0269   0.00    0.0
2019/04/20 00:19:30.000   40.536488921   -7.266412804  1082.3451   6  10   0.0302   0.0308   0.0729   0.0140   0.0158  -0.0112   0.00    0.0
2019/04/20 00:20:00.000   40.536488931   -7.266412725  1082.3335   6  10   0.0202   0.0246   0.0502   0.0127   0.0115   0.0025   0.00    0.0
2019/04/20 00:20:30.000   40.536488889   -7.266412871  1082.3388   6  10   0.0303   0.0305   0.0737   0.0139   0.0144  -0.0118   0.00    0.0
2019/04/20 00:21:00.000   40.536488898   -7.266413233  1082.3274   6  10   0.0457   0.0425   0.1098   0.0179   0.0241  -0.0266   0.00    0.0
2019/04/20 00:21:30.000   40.536488838   -7.266413491  1082.3356   6  10   0.0615   0.0559   0.1496   0.0217   0.0320  -0.0383   0.00    0.0
2019/04/20 00:22:00.000   40.536488797   -7.266413884  1082.3452   6   9   0.0771   0.0690   0.1905   0.0259   0.0433  -0.0448   0.00    0.0
2019/04/20 00:22:30.000   40.536489058   -7.266414112  1082.3707   6   9   0.0923   0.0818   0.2281   0.0306   0.0549  -0.0512   0.00    0.0
2019/04/20 00:23:00.000   40.536489096   -7.266413871  1082.3083   6   9   0.0777   0.0693   0.1919   0.0252   0.0462  -0.0445   0.00    0.0
2019/04/20 00:23:30.000   40.536489104   -7.266413394  1082.3030   6   9   0.0623   0.0561   0.1535   0.0204   0.0364  -0.0361   0.00    0.0
2019/04/20 00:24:00.000   40.536488995   -7.266413046  1082.3305   6   9   0.0465   0.0428   0.1149   0.0163   0.0264  -0.0248   0.00    0.0
2019/04/20 00:24:30.000   40.536488816   -7.266413042  1082.3643   6   9   0.0309   0.0307   0.0770   0.0127   0.0166  -0.0092   0.00    0.0
2019/04/20 00:25:00.000   40.536488984   -7.266412777  1082.3281   6   9   0.0204   0.0246   0.0513   0.0090   0.0092   0.0078   0.00    0.0
2019/04/20 00:25:30.000   40.536488991   -7.266412673  1082.2578   6   9   0.0305   0.0309   0.0759   0.0119   0.0177  -0.0100   0.00    0.0
2019/04/20 00:26:00.000   40.536489137   -7.266412823  1082.2734   6   9   0.0455   0.0425   0.1122   0.0144   0.0287  -0.0253   0.00    0.0
2019/04/20 00:26:30.000   40.536489184   -7.266413286  1082.2809   6   9   0.0610   0.0555   0.1494   0.0173   0.0412  -0.0358   0.00    0.0
2019/04/20 00:27:00.000   40.536489242   -7.266413609  1082.2328   6   9   0.0763   0.0685   0.1864   0.0210   0.0539  -0.0437   0.00    0.0
2019/04/20 00:27:30.000   40.536489295   -7.266413785  1082.2233   6   9   0.0914   0.0811   0.2233   0.0256   0.0666  -0.0500   0.00    0.0
2019/04/20 00:28:00.000   40.536489278   -7.266413555  1082.2378   6   9   0.0758   0.0682   0.1840   0.0198   0.0550  -0.0451   0.00    0.0
2019/04/20 00:28:30.000   40.536489194   -7.266413198  1082.2016   6   9   0.0606   0.0552   0.1468   0.0156   0.0433  -0.0372   0.00    0.0
2019/04/20 00:29:00.000   40.536489179   -7.266412928  1082.2802   6   9   0.0451   0.0422   0.1097   0.0126   0.0314  -0.0265   0.00    0.0
2019/04/20 00:29:30.000   40.536489097   -7.266412833  1082.3729   6   9   0.0298   0.0304   0.0737   0.0103   0.0198  -0.0109   0.00    0.0
2019/04/20 00:30:00.000   40.536488957   -7.266412753  1082.3295   6   9   0.0202   0.0240   0.0504   0.0098   0.0128   0.0091   0.00    0.0
2019/04/20 00:30:30.000   40.536489027   -7.266412822  1082.3338   6   9   0.0296   0.0303   0.0722   0.0097   0.0203  -0.0121   0.00    0.0
2019/04/20 00:31:00.000   40.536489081   -7.266413029  1082.3408   6   9   0.0443   0.0419   0.1072   0.0104   0.0331  -0.0270   0.00    0.0
2019/04/20 00:31:30.000   40.536489312   -7.266413174  1082.3121   6   9   0.0595   0.0548   0.1433   0.0117   0.0467  -0.0375   0.00    0.0
2019/04/20 00:32:00.000   40.536489369   -7.266413478  1082.2445   6   9   0.0748   0.0677   0.1795   0.0148   0.0604  -0.0458   0.00    0.0
2019/04/20 00:32:30.000   40.536489389   -7.266413808  1082.1657   6   9   0.0901   0.0803   0.2157   0.0192   0.0739  -0.0532   0.00    0.0
2019/04/20 00:33:00.000   40.536489261   -7.266413625  1082.2222   6   9   0.0750   0.0677   0.1791   0.0136   0.0615  -0.0465   0.00    0.0
2019/04/20 00:33:30.000   40.536489127   -7.266413398  1082.2855   6   9   0.0598   0.0549   0.1428   0.0095   0.0486  -0.0384   0.00    0.0
2019/04/20 00:34:00.000   40.536489060   -7.266413130  1082.2765   6   9   0.0445   0.0419   0.1068   0.0084   0.0353  -0.0277   0.00    0.0
2019/04/20 00:34:30.000   40.536488948   -7.266412914  1082.2721   6   9   0.0296   0.0301   0.0719   0.0094   0.0222  -0.0125   0.00    0.0
2019/04/20 00:35:00.000   40.536488982   -7.266412735  1082.3291   6   9   0.0199   0.0240   0.0488   0.0105   0.0144   0.0083   0.00    0.0
2019/04/20 00:35:30.000   40.536488996   -7.266412814  1082.3530   6   9   0.0294   0.0302   0.0712   0.0083   0.0227  -0.0132   0.00    0.0
2019/04/20 00:36:00.000   40.536489145   -7.266413015  1082.3212   6   9   0.0440   0.0420   0.1053   0.0048   0.0367  -0.0281   0.00    0.0
2019/04/20 00:36:30.000   40.536489111   -7.266413442  1082.2756   6   9   0.0592   0.0547   0.1404  -0.0020   0.0512  -0.0393   0.00    0.0
2019/04/20 00:37:00.000   40.536489345   -7.266413721  1082.2801   6   9   0.0746   0.0676   0.1757   0.0037   0.0656  -0.0487   0.00    0.0
2019/04/20 00:37:30.000   40.536489551   -7.266414052  1082.2803   6   9   0.0900   0.0802   0.2111   0.0096   0.0799  -0.0575   0.00    0.0
2019/04/20 00:38:00.000   40.536489449   -7.266414110  1082.2605   6   9   0.0750   0.0680   0.1758  -0.0043   0.0667  -0.0498   0.00    0.0
2019/04/20 00:38:30.000   40.536489229   -7.266413814  1082.3079   6   9   0.0597   0.0552   0.1404  -0.0073   0.0530  -0.0407   0.00    0.0
2019/04/20 00:39:00.000   40.536488934   -7.266413630  1082.3187   6   9   0.0445   0.0423   0.1056  -0.0048   0.0388  -0.0294   0.00    0.0
2019/04/20 00:39:30.000   40.536488903   -7.266413162  1082.3221   6   9   0.0298   0.0307   0.0717   0.0066   0.0246  -0.0144   0.00    0.0
2019/04/20 00:40:00.000   40.536489023   -7.266412846  1082.3285   6   9   0.0204   0.0236   0.0491   0.0081   0.0148   0.0056   0.00    0.0
2019/04/20 00:40:30.000   40.536489093   -7.266412840  1082.3032   6   9   0.0295   0.0305   0.0713   0.0057   0.0248  -0.0142   0.00    0.0
2019/04/20 00:41:00.000   40.536489161   -7.266413357  1082.2219   6   9   0.0443   0.0423   0.1046  -0.0081   0.0398  -0.0299   0.00    0.0
2019/04/20 00:41:30.000   40.536489266   -7.266413769  1082.2333   6   9   0.0596   0.0552   0.1387  -0.0122   0.0550  -0.0420   0.00    0.0
2019/04/20 00:42:00.000   40.536489460   -7.266414122  1082.2393   6   9   0.0751   0.0680   0.1731  -0.0142   0.0699  -0.0528   0.00    0.0
2019/04/20 00:42:30.000   40.536489736   -7.266414131  1082.2519   6   9   0.0908   0.0807   0.2078  -0.0147   0.0847  -0.0633   0.00    0.0
2019/04/20 00:43:00.000   40.536489628   -7.266413838  1082.2894   6   9   0.0752   0.0680   0.1729  -0.0159   0.0706  -0.0537   0.00    0.0
2019/04/20 00:43:30.000   40.536489572   -7.266413332  1082.3201   6   9   0.0598   0.0553   0.1386  -0.0146   0.0563  -0.0432   0.00    0.0
2019/04/20 00:44:00.000   40.536489200   -7.266413153  1082.2845   6   9   0.0445   0.0425   0.1049  -0.0107   0.0415  -0.0309   0.00    0.0
2019/04/20 00:44:30.000   40.536489016   -7.266412876  1082.3374   6   9   0.0297   0.0306   0.0719   0.0006   0.0265  -0.0151   0.00    0.0
2019/04/20 00:45:00.000   40.536489003   -7.266412734  1082.3182   6   9   0.0200   0.0243   0.0490   0.0055   0.0165   0.0038   0.00    0.0
2019/04/20 00:45:30.000   40.536489095   -7.266412893  1082.3049   6   9   0.0297   0.0305   0.0724  -0.0031   0.0262  -0.0130   0.00    0.0
2019/04/20 00:46:00.000   40.536489169   -7.266413469  1082.2495   6   9   0.0453   0.0424   0.1072  -0.0128   0.0420  -0.0273   0.00    0.0
2019/04/20 00:46:30.000   40.536489307   -7.266413813  1082.2781   6   9   0.0614   0.0553   0.1423  -0.0178   0.0578  -0.0387   0.00    0.0
2019/04/20 00:47:00.000   40.536489611   -7.266414108  1082.2880   6   9   0.0777   0.0682   0.1779  -0.0210   0.0734  -0.0488   0.00    0.0
2019/04/20 00:47:30.000   40.536489669   -7.266414308  1082.2808   6   9   0.0944   0.0810   0.2144  -0.0233   0.0891  -0.0580   0.00    0.0
2019/04/20 00:48:00.000   40.536489618   -7.266414199  1082.2697   6   9   0.0805   0.0685   0.1859  -0.0221   0.0747  -0.0399   0.00    0.0
2019/04/20 00:48:30.000   40.536489358   -7.266413923  1082.2197   6   8   0.0690   0.0563   0.1668  -0.0132   0.0643   0.0300   0.00    0.0
2019/04/20 00:49:00.000   40.536489367   -7.266413527  1082.2247   6   8   0.0499   0.0433   0.1206  -0.0121   0.0464   0.0120   0.00    0.0
2019/04/20 00:49:30.000   40.536489219   -7.266413225  1082.2739   6   8   0.0314   0.0312   0.0767  -0.0068   0.0285  -0.0066   0.00    0.0
2019/04/20 00:50:00.000   40.536489047   -7.266412830  1082.3223   6   8   0.0192   0.0241   0.0483   0.0056   0.0160   0.0062   0.00    0.0
2019/04/20 00:50:30.000   40.536489012   -7.266413027  1082.3067   6   8   0.0315   0.0311   0.0757  -0.0074   0.0287  -0.0089   0.00    0.0
2019/04/20 00:51:00.000   40.536489303   -7.266413254  1082.2793   6   8   0.0497   0.0433   0.1181  -0.0133   0.0470  -0.0043   0.00    0.0
2019/04/20 00:51:30.000   40.536489478   -7.266413630  1082.2239   6   8   0.0686   0.0564   0.1622  -0.0167   0.0653   0.0193   0.00    0.0
2019/04/20 00:52:00.000   40.536489527   -7.266413808  1082.2107   6   8   0.0878   0.0696   0.2066  -0.0183   0.0834   0.0321   0.00    0.0
2019/04/20 00:52:30.000   40.536489566   -7.266414048  1082.2110   6   8   0.1070   0.0828   0.2510  -0.0192   0.1015   0.0430   0.00    0.0
2019/04/20 00:53:00.000   40.536489625   -7.266413677  1082.2935   6   8   0.0879   0.0699   0.2056  -0.0200   0.0841   0.0273   0.00    0.0
2019/04/20 00:53:30.000   40.536489581   -7.266413137  1082.3882   6   8   0.0688   0.0568   0.1605  -0.0191   0.0662   0.0028   0.00    0.0
2019/04/20 00:54:00.000   40.536489265   -7.266413039  1082.3288   6   8   0.0499   0.0437   0.1164  -0.0158   0.0481  -0.0171   0.00    0.0
2019/04/20 00:54:30.000   40.536489071   -7.266412805  1082.3552   6   8   0.0317   0.0316   0.0746  -0.0098   0.0298  -0.0145   0.00    0.0
2019/04/20 00:55:00.000   40.536489037   -7.266412816  1082.3217   6   8   0.0196   0.0245   0.0471  -0.0019   0.0175  -0.0058   0.00    0.0
2019/04/20 00:55:30.000   40.536489115   -7.266412904  1082.3485   6   8   0.0316   0.0315   0.0736  -0.0100   0.0300  -0.0155   0.00    0.0
2019/04/20 00:56:00.000   40.536489282   -7.266413249  1082.2993   6   8   0.0498   0.0438   0.1139  -0.0171   0.0484  -0.0213   0.00    0.0
2019/04/20 00:56:30.000   40.536489269   -7.266413653  1082.2618   6   8   0.0686   0.0569   0.1560  -0.0221   0.0668  -0.0230   0.00    0.0
2019/04/20 00:57:00.000   40.536489401   -7.266413824  1082.2866   6   8   0.0877   0.0703   0.1985  -0.0261   0.0851  -0.0233   0.00    0.0
2019/04/20 00:57:30.000   40.536489517   -7.266413879  1082.2853   6   8   0.1069   0.0837   0.2411  -0.0300   0.1034  -0.0243   0.00    0.0
2019/04/20 00:58:00.000   40.536489369   -7.266413598  1082.3176   6   8   0.0879   0.0705   0.1969  -0.0283   0.0852  -0.0304   0.00    0.0
2019/04/20 00:58:30.000   40.536489379   -7.266413317  1082.3061   6   8   0.0689   0.0573   0.1537  -0.0249   0.0672  -0.0312   0.00    0.0
2019/04/20 00:59:00.000   40.536489265   -7.266413076  1082.2850   6   8   0.0502   0.0442   0.1118  -0.0200   0.0490  -0.0280   0.00    0.0
2019/04/20 00:59:30.000   40.536489089   -7.266412897  1082.3023   6   8   0.0320   0.0317   0.0721  -0.0125   0.0307  -0.0200   0.00    0.0
2019/04/20 01:00:00.000   40.536489072   -7.266412814  1082.3330   6   8   0.0196   0.0249   0.0462  -0.0064   0.0180  -0.0099   0.00    0.0
2019/04/20 01:00:30.000   40.536489024   -7.266413043  1082.2889   6   8   0.0320   0.0319   0.0710  -0.0132   0.0308  -0.0208   0.00    0.0
2019/04/20 01:01:00.000   40.536489148   -7.266413230  1082.2617   6   8   0.0501   0.0442   0.1094  -0.0210   0.0490  -0.0307   0.00    0.0
2019/04/20 01:01:30.000   40.536489420   -7.266413647  1082.2393   6   8   0.0690   0.0574   0.1496  -0.0276   0.0675  -0.0388   0.00    0.0
2019/04/20 01:02:00.000   40.536489408   -7.266413769  1082.2298   6   8   0.0883   0.0709   0.1905  -0.0336   0.0860  -0.0469   0.00    0.0
2019/04/20 01:02:30.000   40.536489433   -7.266413977  1082.2031   6   8   0.1077   0.0846   0.2316  -0.0397   0.1045  -0.0560   0.00    0.0
2019/04/20 01:03:00.000   40.536489371   -7.266413781  1082.2700   6   8   0.0885   0.0711   0.1899  -0.0346   0.0864  -0.0502   0.00    0.0
2019/04/20 01:03:30.000   40.536489278   -7.266413522  1082.2897   6   8   0.0695   0.0577   0.1485  -0.0293   0.0682  -0.0435   0.00    0.0
2019/04/20 01:04:00.000   40.536489345   -7.266413162  1082.3210   6   8   0.0507   0.0445   0.1083  -0.0229   0.0498  -0.0352   0.00    0.0
2019/04/20 01:04:30.000   40.536489287   -7.266412796  1082.3450   6   8   0.0326   0.0321   0.0703  -0.0147   0.0315  -0.0241   0.00    0.0
2019/04/20 01:05:00.000   40.536489040   -7.266412870  1082.3099   6   8   0.0199   0.0252   0.0452  -0.0074   0.0183  -0.0128   0.00    0.0
2019/04/20 01:05:30.000   40.536489061   -7.266413167  1082.2473   6   8   0.0325   0.0321   0.0695  -0.0149   0.0314  -0.0244   0.00    0.0
2019/04/20 01:06:00.000   40.536489267   -7.266413515  1082.2260   6   8   0.0509   0.0445   0.1063  -0.0239   0.0498  -0.0372   0.00    0.0
2019/04/20 01:06:30.000   40.536489313   -7.266413723  1082.1995   6   8   0.0700   0.0579   0.1452  -0.0319   0.0685  -0.0492   0.00    0.0
2019/04/20 01:07:00.000   40.536489758   -7.266413894  1082.1670   6   9   0.0839   0.0714   0.1739  -0.0418   0.0852  -0.0758   0.00    0.0
2019/04/20 01:07:30.000   40.536489822   -7.266413917  1082.1963   6   9   0.1006   0.0852   0.2075  -0.0517   0.1023  -0.0966   0.00    0.0
2019/04/20 01:08:00.000   40.536489663   -7.266414051  1082.1900   6   9   0.0829   0.0716   0.1713  -0.0439   0.0850  -0.0807   0.00    0.0
2019/04/20 01:08:30.000   40.536489483   -7.266413872  1082.2191   6   9   0.0656   0.0581   0.1354  -0.0357   0.0676  -0.0645   0.00    0.0
2019/04/20 01:09:00.000   40.536489284   -7.266413579  1082.2660   6   9   0.0485   0.0449   0.1005  -0.0268   0.0501  -0.0479   0.00    0.0
2019/04/20 01:09:30.000   40.536489193   -7.266413255  1082.2889   6   9   0.0318   0.0323   0.0670  -0.0168   0.0323  -0.0305   0.00    0.0
2019/04/20 01:10:00.000   40.536489059   -7.266412838  1082.3148   6   9   0.0199   0.0249   0.0438  -0.0081   0.0195  -0.0166   0.00    0.0
2019/04/20 01:10:30.000   40.536488993   -7.266412959  1082.2996   6  10   0.0271   0.0292   0.0561  -0.0083   0.0236  -0.0198   0.00    0.0
2019/04/20 01:11:00.000   40.536489073   -7.266413166  1082.3008   6  10   0.0387   0.0376   0.0757  -0.0086   0.0312  -0.0253   0.00    0.0
2019/04/20 01:11:30.000   40.536489072   -7.266413373  1082.2732   6  10   0.0512   0.0472   0.0972  -0.0055   0.0391  -0.0299   0.00    0.0
2019/04/20 01:12:00.000   40.536489182   -7.266413414  1082.2742   6  10   0.0642   0.0573   0.1199   0.0088   0.0472  -0.0340   0.00    0.0
2019/04/20 01:12:30.000   40.536489450   -7.266413596  1082.2560   6  10   0.0773   0.0676   0.1433   0.0159   0.0554  -0.0377   0.00    0.0
2019/04/20 01:13:00.000   40.536489362   -7.266413497  1082.2588   6  10   0.0642   0.0574   0.1199   0.0092   0.0473  -0.0342   0.00    0.0
2019/04/20 01:13:30.000   40.536489162   -7.266413293  1082.2914   6  10   0.0511   0.0472   0.0968  -0.0053   0.0390  -0.0303   0.00    0.0
2019/04/20 01:14:00.000   40.536489176   -7.266413007  1082.3131   6  10   0.0384   0.0375   0.0744  -0.0085   0.0306  -0.0256   0.00    0.0
2019/04/20 01:14:30.000   40.536489011   -7.266412857  1082.3434   6  10   0.0266   0.0290   0.0540  -0.0081   0.0224  -0.0199   0.00    0.0
2019/04/20 01:15:00.000   40.536488982   -7.266412845  1082.3368   6  10   0.0185   0.0238   0.0398  -0.0047   0.0164  -0.0141   0.00    0.0
2019/04/20 01:15:30.000   40.536489020   -7.266412914  1082.3171   6  10   0.0264   0.0288   0.0529  -0.0078   0.0219  -0.0199   0.00    0.0
2019/04/20 01:16:00.000   40.536488997   -7.266413129  1082.2705   6  10   0.0379   0.0372   0.0728  -0.0080   0.0300  -0.0253   0.00    0.0
2019/04/20 01:16:30.000   40.536489200   -7.266413323  1082.2226   6  10   0.0505   0.0468   0.0951  -0.0050   0.0386  -0.0302   0.00    0.0
2019/04/20 01:17:00.000   40.536489172   -7.266413491  1082.2204   6  10   0.0635   0.0569   0.1186   0.0086   0.0474  -0.0349   0.00    0.0
2019/04/20 01:17:30.000   40.536489344   -7.266413689  1082.2191   6  10   0.0767   0.0673   0.1428   0.0151   0.0564  -0.0396   0.00    0.0
2019/04/20 01:18:00.000   40.536489472   -7.266413448  1082.2647   6  10   0.0636   0.0569   0.1189   0.0075   0.0477  -0.0357   0.00    0.0
2019/04/20 01:18:30.000   40.536489285   -7.266413357  1082.2900   6  10   0.0505   0.0467   0.0952  -0.0068   0.0389  -0.0312   0.00    0.0
2019/04/20 01:19:00.000   40.536489149   -7.266413029  1082.2938   6  10   0.0378   0.0370   0.0725  -0.0087   0.0298  -0.0261   0.00    0.0
2019/04/20 01:19:30.000   40.536489131   -7.266412760  1082.3229   6  10   0.0261   0.0284   0.0518  -0.0077   0.0212  -0.0203   0.00    0.0
2019/04/20 01:20:00.000   40.536489026   -7.266412812  1082.3244   6  10   0.0182   0.0234   0.0378  -0.0049   0.0152  -0.0147   0.00    0.0
2019/04/20 01:20:30.000   40.536489098   -7.266412728  1082.3686   6  10   0.0260   0.0283   0.0511  -0.0076   0.0207  -0.0201   0.00    0.0
2019/04/20 01:21:00.000   40.536489317   -7.266412896  1082.3439   6  10   0.0375   0.0368   0.0714  -0.0087   0.0294  -0.0260   0.00    0.0
2019/04/20 01:21:30.000   40.536489447   -7.266413018  1082.3405   6  10   0.0501   0.0464   0.0943  -0.0071   0.0386  -0.0316   0.00    0.0
2019/04/20 01:22:00.000   40.536489293   -7.266413114  1082.3205   6  10   0.0632   0.0566   0.1184   0.0052   0.0481  -0.0373   0.00    0.0
2019/04/20 01:22:30.000   40.536489318   -7.266413317  1082.3207   6  10   0.0764   0.0671   0.1432   0.0121   0.0577  -0.0432   0.00    0.0
2019/04/20 01:23:00.000   40.536489319   -7.266413376  1082.3302   6  10   0.0633   0.0568   0.1189   0.0029   0.0484  -0.0382   0.00    0.0
2019/04/20 01:23:30.000   40.536489252   -7.266413168  1082.3369   6  10   0.0503   0.0466   0.0948  -0.0084   0.0390  -0.0327   0.00    0.0
2019/04/20 01:24:00.000   40.536489096   -7.266412943  1082.3455   6  10   0.0376   0.0368   0.0716  -0.0094   0.0294  -0.0269   0.00    0.0
2019/04/20 01:24:30.000   40.536489022   -7.266412873  1082.3552   6  10   0.0259   0.0283   0.0506  -0.0081   0.0203  -0.0204   0.00    0.0
2019/04/20 01:25:00.000   40.536489036   -7.266412798  1082.3394   6  10   0.0182   0.0234   0.0365  -0.0063   0.0143  -0.0153   0.00    0.0
2019/04/20 01:25:30.000   40.536488847   -7.266412865  1082.3225   6  10   0.0257   0.0281   0.0499  -0.0078   0.0197  -0.0203   0.00    0.0
2019/04/20 01:26:00.000   40.536488933   -7.266413218  1082.3185   6  10   0.0374   0.0367   0.0708  -0.0093   0.0287  -0.0267   0.00    0.0
2019/04/20 01:26:30.000   40.536489109   -7.266413428  1082.3073   6  10   0.0500   0.0464   0.0941  -0.0087   0.0385  -0.0332   0.00    0.0
2019/04/20 01:27:00.000   40.536489528   -7.266413338  1082.3067   6  10   0.0631   0.0566   0.1186  -0.0053   0.0486  -0.0400   0.00    0.0
2019/04/20 01:27:30.000   40.536489488   -7.266413312  1082.3220   6  10   0.0765   0.0671   0.1438   0.0071   0.0588  -0.0472   0.00    0.0
2019/04/20 01:28:00.000   40.536489242   -7.266413254  1082.3095   6  10   0.0632   0.0566   0.1188  -0.0075   0.0488  -0.0411   0.00    0.0
2019/04/20 01:28:30.000   40.536489119   -7.266413233  1082.3089   6  10   0.0501   0.0464   0.0944  -0.0103   0.0387  -0.0345   0.00    0.0
2019/04/20 01:29:00.000   40.536488945   -7.266413050  1082.3703   6  10   0.0374   0.0367   0.0710  -0.0103   0.0286  -0.0277   0.00    0.0
2019/04/20 01:29:30.000   40.536488928   -7.266412857  1082.3626   6  10   0.0255   0.0281   0.0496  -0.0081   0.0188  -0.0207   0.00    0.0
2019/04/20 01:30:00.000   40.536489027   -7.266412845  1082.3399   6  10   0.0178   0.0235   0.0358  -0.0070   0.0127  -0.0156   0.00    0.0
2019/04/20 01:30:30.000   40.536488929   -7.266412893  1082.3288   6  10   0.0255   0.0283   0.0498  -0.0082   0.0172  -0.0203   0.00    0.0
2019/04/20 01:31:00.000   40.536488681   -7.266413058  1082.2989   6  10   0.0380   0.0378   0.0725  -0.0113   0.0246  -0.0267   0.00    0.0
2019/04/20 01:31:30.000   40.536488666   -7.266413294  1082.3058   6   9   0.0522   0.0488   0.1012  -0.0129   0.0303  -0.0308   0.00    0.0
2019/04/20 01:32:00.000   40.536488748   -7.266413391  1082.2907   6   8   0.0669   0.0627   0.1365  -0.0066   0.0246  -0.0412   0.00    0.0
2019/04/20 01:32:30.000   40.536489063   -7.266413476  1082.3038   6   8   0.0816   0.0751   0.1672   0.0047   0.0275  -0.0490   0.00    0.0
2019/04/20 01:33:00.000   40.536489229   -7.266413368  1082.3333   6   8   0.0671   0.0626   0.1369  -0.0068   0.0249  -0.0416   0.00    0.0
2019/04/20 01:33:30.000   40.536489388   -7.266413396  1082.3508   6   8   0.0528   0.0504   0.1071  -0.0098   0.0221  -0.0346   0.00    0.0
2019/04/20 01:34:00.000   40.536489268   -7.266413161  1082.3231   6   8   0.0388   0.0388   0.0781  -0.0098   0.0188  -0.0276   0.00    0.0
2019/04/20 01:34:30.000   40.536489143   -7.266412912  1082.3569   6   8   0.0258   0.0286   0.0516  -0.0076   0.0145  -0.0205   0.00    0.0
2019/04/20 01:35:00.000   40.536488965   -7.266412771  1082.3583   6   8   0.0171   0.0225   0.0349  -0.0038   0.0107  -0.0155   0.00    0.0
2019/04/20 01:35:30.000   40.536489070   -7.266412735  1082.3524   6   8   0.0256   0.0285   0.0510  -0.0071   0.0140  -0.0202   0.00    0.0
2019/04/20 01:36:00.000   40.536489264   -7.266413207  1082.2876   6   8   0.0384   0.0385   0.0776  -0.0094   0.0181  -0.0274   0.00    0.0
2019/04/20 01:36:30.000   40.536489199   -7.266413307  1082.2871   6   8   0.0525   0.0498   0.1073  -0.0099   0.0218  -0.0355   0.00    0.0
2019/04/20 01:37:00.000   40.536489133   -7.266412967  1082.2594   6   8   0.0670   0.0618   0.1383  -0.0094   0.0253  -0.0442   0.00    0.0
2019/04/20 01:37:30.000   40.536489178   -7.266413168  1082.2802   6   8   0.0818   0.0742   0.1697  -0.0084   0.0290  -0.0534   0.00    0.0
2019/04/20 01:38:00.000   40.536489235   -7.266413089  1082.3221   6   8   0.0671   0.0618   0.1388  -0.0112   0.0252  -0.0455   0.00    0.0
2019/04/20 01:38:30.000   40.536489197   -7.266413113  1082.3377   6   8   0.0526   0.0498   0.1080  -0.0115   0.0219  -0.0372   0.00    0.0
2019/04/20 01:39:00.000   40.536489023   -7.266413065  1082.3584   6   8   0.0385   0.0384   0.0781  -0.0106   0.0181  -0.0290   0.00    0.0
2019/04/20 01:39:30.000   40.536488880   -7.266412826  1082.3692   6   8   0.0254   0.0283   0.0507  -0.0075   0.0136  -0.0210   0.00    0.0
2019/04/20 01:40:00.000   40.536489023   -7.266412862  1082.3422   6   8   0.0172   0.0228   0.0340  -0.0044   0.0097  -0.0155   0.00    0.0
2019/04/20 01:40:30.000   40.536489089   -7.266413061  1082.3280   6   8   0.0252   0.0283   0.0502  -0.0074   0.0132  -0.0207   0.00    0.0
2019/04/20 01:41:00.000   40.536488963   -7.266413055  1082.3439   6   8   0.0382   0.0380   0.0777  -0.0101   0.0174  -0.0289   0.00    0.0
2019/04/20 01:41:30.000   40.536488796   -7.266413072  1082.3453   6   8   0.0524   0.0493   0.1082  -0.0118   0.0215  -0.0383   0.00    0.0
2019/04/20 01:42:00.000   40.536488831   -7.266413070  1082.3139   6   8   0.0671   0.0612   0.1398  -0.0132   0.0257  -0.0483   0.00    0.0
2019/04/20 01:42:30.000   40.536488907   -7.266413305  1082.2999   6   8   0.0822   0.0735   0.1719  -0.0147   0.0302  -0.0589   0.00    0.0
2019/04/20 01:43:00.000   40.536489077   -7.266413508  1082.2685   6   8   0.0676   0.0612   0.1409  -0.0145   0.0267  -0.0493   0.00    0.0
2019/04/20 01:43:30.000   40.536489047   -7.266413546  1082.3006   6   8   0.0529   0.0492   0.1094  -0.0133   0.0226  -0.0397   0.00    0.0
2019/04/20 01:44:00.000   40.536489240   -7.266413225  1082.3149   6   8   0.0386   0.0379   0.0788  -0.0112   0.0182  -0.0302   0.00    0.0
2019/04/20 01:44:30.000   40.536489314   -7.266412974  1082.3514   6   8   0.0255   0.0282   0.0508  -0.0077   0.0133  -0.0214   0.00    0.0
2019/04/20 01:45:00.000   40.536489144   -7.266412803  1082.3363   6   8   0.0174   0.0227   0.0334  -0.0044   0.0099  -0.0159   0.00    0.0
2019/04/20 01:45:30.000   40.536488940   -7.266412959  1082.3042   6   8   0.0252   0.0280   0.0502  -0.0073   0.0127  -0.0210   0.00    0.0
2019/04/20 01:46:00.000   40.536489087   -7.266413092  1082.2912   6   8   0.0383   0.0376   0.0784  -0.0109   0.0176  -0.0303   0.00    0.0
2019/04/20 01:46:30.000   40.536489162   -7.266413381  1082.2706   6   8   0.0528   0.0488   0.1094  -0.0137   0.0224  -0.0409   0.00    0.0
2019/04/20 01:47:00.000   40.536489064   -7.266413735  1082.2332   6   8   0.0678   0.0607   0.1415  -0.0164   0.0275  -0.0523   0.00    0.0
2019/04/20 01:47:30.000   40.536489043   -7.266413418  1082.2187   6   8   0.0831   0.0730   0.1740  -0.0193   0.0328  -0.0641   0.00    0.0
2019/04/20 01:48:00.000   40.536489091   -7.266413058  1082.2962   6   8   0.0681   0.0609   0.1418  -0.0163   0.0276  -0.0530   0.00    0.0
2019/04/20 01:48:30.000   40.536489319   -7.266412904  1082.3283   6   8   0.0532   0.0489   0.1099  -0.0138   0.0227  -0.0420   0.00    0.0
2019/04/20 01:49:00.000   40.536489265   -7.266412894  1082.3144   6   8   0.0387   0.0377   0.0788  -0.0110   0.0177  -0.0313   0.00    0.0
2019/04/20 01:49:30.000   40.536489082   -7.266412768  1082.3394   6   8   0.0253   0.0279   0.0503  -0.0068   0.0124  -0.0215   0.00    0.0
2019/04/20 01:50:00.000   40.536489044   -7.266412844  1082.3455   6   8   0.0171   0.0222   0.0328  -0.0031   0.0085  -0.0155   0.00    0.0
2019/04/20 01:50:30.000   40.536489017   -7.266412921  1082.3531   6   8   0.0251   0.0278   0.0499  -0.0064   0.0118  -0.0212   0.00    0.0
2019/04/20 01:51:00.000   40.536488982   -7.266413021  1082.3209   6   8   0.0385   0.0375   0.0784  -0.0107   0.0171  -0.0315   0.00    0.0
2019/04/20 01:51:30.000   40.536489037   -7.266413085  1082.3217   6   8   0.0533   0.0486   0.1097  -0.0144   0.0227  -0.0433   0.00    0.0
2019/04/20 01:52:00.000   40.536488963   -7.266413236  1082.3114   6   8   0.0686   0.0605   0.1420  -0.0182   0.0285  -0.0558   0.00    0.0
2019/04/20 01:52:30.000   40.536489129   -7.266413231  1082.3189   6   8   0.0842   0.0728   0.1746  -0.0222   0.0345  -0.0689   0.00    0.0
2019/04/20 01:53:00.000   40.536489074   -7.266413207  1082.3368   6   8   0.0687   0.0605   0.1419  -0.0183   0.0288  -0.0564   0.00    0.0
2019/04/20 01:53:30.000   40.536489234   -7.266413190  1082.3432   6   8   0.0535   0.0486   0.1097  -0.0148   0.0231  -0.0442   0.00    0.0
2019/04/20 01:54:00.000   40.536489194   -7.266413006  1082.3532   6   8   0.0387   0.0374   0.0784  -0.0110   0.0173  -0.0324   0.00    0.0
2019/04/20 01:54:30.000   40.536489012   -7.266412865  1082.3459   6   8   0.0251   0.0279   0.0498  -0.0064   0.0114  -0.0215   0.00    0.0
2019/04/20 01:55:00.000   40.536489054   -7.266412832  1082.3442   6   8   0.0168   0.0221   0.0322  -0.0007   0.0068  -0.0149   0.00    0.0
2019/04/20 01:55:30.000   40.536488972   -7.266413046  1082.3064   6   8   0.0249   0.0277   0.0495  -0.0058   0.0108  -0.0213   0.00    0.0
2019/04/20 01:56:00.000   40.536488990   -7.266413227  1082.3220   6   8   0.0386   0.0373   0.0780  -0.0109   0.0168  -0.0326   0.00    0.0
2019/04/20 01:56:30.000   40.536489161   -7.266413366  1082.3128   6   8   0.0537   0.0484   0.1094  -0.0155   0.0231  -0.0455   0.00    0.0
2019/04/20 01:57:00.000   40.536489192   -7.266413331  1082.3224   6   8   0.0694   0.0602   0.1416  -0.0202   0.0297  -0.0590   0.00    0.0
2019/04/20 01:57:30.000   40.536489041   -7.266413273  1082.3581   6   8   0.0853   0.0726   0.1742  -0.0252   0.0364  -0.0730   0.00    0.0
2019/04/20 01:58:00.000   40.536489314   -7.266413224  1082.3286   6   8   0.0698   0.0603   0.1420  -0.0219   0.0300  -0.0604   0.00    0.0
2019/04/20 01:58:30.000   40.536489407   -7.266413235  1082.3194   6   8   0.0543   0.0484   0.1097  -0.0174   0.0236  -0.0471   0.00    0.0
2019/04/20 01:59:00.000   40.536489414   -7.266412996  1082.3252   6   8   0.0392   0.0373   0.0784  -0.0126   0.0170  -0.0342   0.00    0.0
2019/04/20 01:59:30.000   40.536489174   -7.266412790  1082.3371   6   8   0.0252   0.0278   0.0499  -0.0071   0.0102  -0.0222   0.00    0.0
2019/04/20 02:00:00.000   40.536489079   -7.266412790  1082.3426   6   8   0.0168   0.0222   0.0322  -0.0008   0.0063  -0.0148   0.00    0.0
2019/04/20 02:00:30.000   40.536488982   -7.266412983  1082.3504   6   8   0.0251   0.0277   0.0495  -0.0065   0.0097  -0.0219   0.00    0.0
2019/04/20 02:01:00.000   40.536489052   -7.266413107  1082.3432   6   8   0.0392   0.0372   0.0780  -0.0125   0.0165  -0.0344   0.00    0.0
2019/04/20 02:01:30.000   40.536489328   -7.266413219  1082.3102   6   8   0.0546   0.0483   0.1091  -0.0181   0.0236  -0.0483   0.00    0.0
2019/04/20 02:02:00.000   40.536489415   -7.266413264  1082.3045   6   8   0.0706   0.0603   0.1411  -0.0237   0.0310  -0.0628   0.00    0.0
2019/04/20 02:02:30.000   40.536489365   -7.266413191  1082.3125   6   8   0.0869   0.0726   0.1733  -0.0295   0.0384  -0.0776   0.00    0.0
2019/04/20 02:03:00.000   40.536489417   -7.266413208  1082.3142   6   8   0.0709   0.0603   0.1408  -0.0238   0.0316  -0.0632   0.00    0.0
2019/04/20 02:03:30.000   40.536489403   -7.266413106  1082.3215   6   9   0.0534   0.0483   0.1065  -0.0173   0.0257  -0.0518   0.00    0.0
2019/04/20 02:04:00.000   40.536489521   -7.266412948  1082.3111   6   9   0.0383   0.0372   0.0760  -0.0118   0.0180  -0.0372   0.00    0.0
2019/04/20 02:04:30.000   40.536489312   -7.266412756  1082.3383   6   9   0.0248   0.0276   0.0488  -0.0051   0.0098  -0.0232   0.00    0.0
2019/04/20 02:05:00.000   40.536489116   -7.266412747  1082.3293   6   9   0.0162   0.0221   0.0317   0.0016   0.0058  -0.0144   0.00    0.0
2019/04/20 02:05:30.000   40.536489418   -7.266412999  1082.3099   6   9   0.0245   0.0276   0.0484  -0.0047   0.0092  -0.0233   0.00    0.0
2019/04/20 02:06:00.000   40.536489462   -7.266413128  1082.2918   6   9   0.0379   0.0372   0.0752  -0.0119   0.0174  -0.0381   0.00    0.0
2019/04/20 02:06:30.000   40.536489589   -7.266413171  1082.2956   6   9   0.0527   0.0483   0.1048  -0.0179   0.0258  -0.0543   0.00    0.0
2019/04/20 02:07:00.000   40.536489504   -7.266413282  1082.3054   6   9   0.0679   0.0602   0.1354  -0.0239   0.0343  -0.0709   0.00    0.0
2019/04/20 02:07:30.000   40.536489436   -7.266413227  1082.3085   6   9   0.0834   0.0726   0.1664  -0.0299   0.0428  -0.0878   0.00    0.0
2019/04/20 02:08:00.000   40.536489298   -7.266413077  1082.3545   6   9   0.0683   0.0604   0.1356  -0.0247   0.0345  -0.0716   0.00    0.0
2019/04/20 02:08:30.000   40.536489283   -7.266412874  1082.3768   6   9   0.0531   0.0485   0.1050  -0.0190   0.0262  -0.0551   0.00    0.0
2019/04/20 02:09:00.000   40.536489363   -7.266412769  1082.3743   6   9   0.0384   0.0374   0.0754  -0.0129   0.0175  -0.0390   0.00    0.0
2019/04/20 02:09:30.000   40.536489518   -7.266412743  1082.3395   6   9   0.0247   0.0278   0.0485  -0.0056   0.0083  -0.0240   0.00    0.0
2019/04/20 02:10:00.000   40.536489128   -7.266412788  1082.3295   6   9   0.0162   0.0223   0.0317   0.0033   0.0013  -0.0142   0.00    0.0
2019/04/20 02:10:30.000   40.536489349   -7.266412642  1082.3401   6   9   0.0246   0.0279   0.0483  -0.0056   0.0078  -0.0239   0.00    0.0
2019/04/20 02:11:00.000   40.536489413   -7.266412603  1082.3592   6   9   0.0383   0.0375   0.0753  -0.0127   0.0171  -0.0391   0.00    0.0
2019/04/20 02:11:30.000   40.536489578   -7.266412713  1082.3431   6   9   0.0533   0.0486   0.1048  -0.0194   0.0262  -0.0555   0.00    0.0
2019/04/20 02:12:00.000   40.536489674   -7.266412707  1082.3475   6   9   0.0688   0.0606   0.1354  -0.0261   0.0353  -0.0723   0.00    0.0
2019/04/20 02:12:30.000   40.536489433   -7.266412564  1082.3759   6   9   0.0845   0.0730   0.1662  -0.0327   0.0443  -0.0892   0.00    0.0
2019/04/20 02:13:00.000   40.536489260   -7.266412653  1082.3649   6   9   0.0690   0.0607   0.1352  -0.0266   0.0354  -0.0725   0.00    0.0
2019/04/20 02:13:30.000   40.536489372   -7.266412850  1082.3342   6   9   0.0536   0.0488   0.1047  -0.0201   0.0265  -0.0558   0.00    0.0
2019/04/20 02:14:00.000   40.536489236   -7.266412923  1082.3272   6   9   0.0386   0.0377   0.0753  -0.0134   0.0172  -0.0395   0.00    0.0
2019/04/20 02:14:30.000   40.536489144   -7.266412864  1082.3444   6   9   0.0248   0.0281   0.0486  -0.0056   0.0072  -0.0243   0.00    0.0
2019/04/20 02:15:00.000   40.536489138   -7.266412799  1082.3282   6   9   0.0160   0.0222   0.0314   0.0048  -0.0024  -0.0143   0.00    0.0
2019/04/20 02:15:30.000   40.536489218   -7.266412741  1082.3254   6   9   0.0245   0.0282   0.0484  -0.0051   0.0059  -0.0241   0.00    0.0
2019/04/20 02:16:00.000   40.536489274   -7.266413070  1082.3181   6   9   0.0386   0.0379   0.0751  -0.0132   0.0166  -0.0395   0.00    0.0
2019/04/20 02:16:30.000   40.536489309   -7.266412996  1082.3160   6   9   0.0537   0.0490   0.1043  -0.0205   0.0263  -0.0559   0.00    0.0
2019/04/20 02:17:00.000   40.536489223   -7.266412980  1082.3285   6   9   0.0694   0.0610   0.1343  -0.0277   0.0358  -0.0727   0.00    0.0
2019/04/20 02:17:30.000   40.536489212   -7.266413048  1082.3434   6   9   0.0853   0.0735   0.1646  -0.0349   0.0452  -0.0896   0.00    0.0
2019/04/20 02:18:00.000   40.536489128   -7.266413078  1082.3388   6   9   0.0695   0.0611   0.1344  -0.0277   0.0358  -0.0727   0.00    0.0
2019/04/20 02:18:30.000   40.536489224   -7.266413183  1082.3119   6   9   0.0540   0.0492   0.1043  -0.0206   0.0263  -0.0560   0.00    0.0
2019/04/20 02:19:00.000   40.536488937   -7.266412972  1082.3488   6   9   0.0388   0.0381   0.0754  -0.0131   0.0162  -0.0397   0.00    0.0
2019/04/20 02:19:30.000   40.536488935   -7.266412918  1082.3463   6   9   0.0248   0.0284   0.0491  -0.0034   0.0038  -0.0243   0.00    0.0
2019/04/20 02:20:00.000   40.536489160   -7.266412777  1082.3217   6   9   0.0155   0.0220   0.0319   0.0055  -0.0064  -0.0138   0.00    0.0
2019/04/20 02:20:30.000   40.536489360   -7.266412960  1082.3190   6   9   0.0246   0.0286   0.0492  -0.0030  -0.0019  -0.0243   0.00    0.0
2019/04/20 02:21:00.000   40.536489305   -7.266412995  1082.3390   6   9   0.0388   0.0385   0.0755  -0.0128   0.0150  -0.0397   0.00    0.0
2019/04/20 02:21:30.000   40.536489153   -7.266412717  1082.3665   6   9   0.0541   0.0497   0.1040  -0.0209   0.0257  -0.0560   0.00    0.0
2019/04/20 02:22:00.000   40.536489345   -7.266412923  1082.3542   6   9   0.0699   0.0617   0.1332  -0.0286   0.0357  -0.0726   0.00    0.0
2019/04/20 02:22:30.000   40.536489199   -7.266412892  1082.3592   6   9   0.0859   0.0742   0.1628  -0.0364   0.0455  -0.0893   0.00    0.0
2019/04/20 02:23:00.000   40.536489185   -7.266412796  1082.3680   6   9   0.0699   0.0617   0.1329  -0.0291   0.0358  -0.0725   0.00    0.0
2019/04/20 02:23:30.000   40.536489467   -7.266413046  1082.3353   6   9   0.0542   0.0499   0.1038  -0.0215   0.0257  -0.0559   0.00    0.0
2019/04/20 02:24:00.000   40.536489604   -7.266413167  1082.3024   6   9   0.0389   0.0388   0.0759  -0.0133   0.0147  -0.0397   0.00    0.0
2019/04/20 02:24:30.000   40.536489274   -7.266413206  1082.2990   6   9   0.0247   0.0289   0.0502  -0.0037  -0.0048  -0.0244   0.00    0.0
2019/04/20 02:25:00.000   40.536489067   -7.266412860  1082.3191   6   9   0.0155   0.0223   0.0326   0.0053  -0.0067  -0.0138   0.00    0.0
2019/04/20 02:25:30.000   40.536489129   -7.266412946  1082.3289   6   9   0.0247   0.0298   0.0526   0.0031  -0.0110  -0.0248   0.00    0.0
2019/04/20 02:26:00.000   40.536489317   -7.266412833  1082.3028   6   8   0.0414   0.0446   0.0914   0.0111  -0.0284  -0.0471   0.00    0.0
2019/04/20 02:26:30.000   40.536489285   -7.266412462  1082.3405   6   8   0.0585   0.0600   0.1305   0.0150  -0.0399  -0.0677   0.00    0.0
2019/04/20 02:27:00.000   40.536489064   -7.266412692  1082.3758   6   7   0.0761   0.0768   0.1772   0.0198  -0.0465  -0.0870   0.00    0.0
2019/04/20 02:27:30.000   40.536488792   -7.266413178  1082.4234   6   7   0.0936   0.0934   0.2185   0.0234  -0.0569  -0.1074   0.00    0.0
2019/04/20 02:28:00.000   40.536489030   -7.266412922  1082.3802   6   7   0.0761   0.0769   0.1770   0.0177  -0.0453  -0.0868   0.00    0.0
2019/04/20 02:28:30.000   40.536488948   -7.266412926  1082.3733   6   7   0.0586   0.0605   0.1356   0.0130  -0.0344  -0.0660   0.00    0.0
2019/04/20 02:29:00.000   40.536489004   -7.266412964  1082.3529   6   7   0.0415   0.0450   0.0951   0.0089  -0.0238  -0.0456   0.00    0.0
2019/04/20 02:29:30.000   40.536489260   -7.266412981  1082.3161   6   7   0.0257   0.0313   0.0573   0.0062  -0.0139  -0.0262   0.00    0.0
2019/04/20 02:30:00.000   40.536489147   -7.266412868  1082.3310   6   8   0.0152   0.0223   0.0331   0.0071  -0.0093  -0.0127   0.00    0.0
2019/04/20 02:30:30.000   40.536489202   -7.266413199  1082.3327   6   8   0.0239   0.0303   0.0520   0.0103  -0.0189  -0.0218   0.00    0.0
2019/04/20 02:31:00.000   40.536489161   -7.266413136  1082.3320   6   8   0.0370   0.0428   0.0803   0.0170  -0.0344  -0.0334   0.00    0.0
2019/04/20 02:31:30.000   40.536489371   -7.266413364  1082.2930   6   8   0.0510   0.0569   0.1110   0.0247  -0.0505  -0.0453   0.00    0.0
2019/04/20 02:32:00.000   40.536489207   -7.266413210  1082.3147   6   8   0.0654   0.0717   0.1427   0.0323  -0.0666  -0.0574   0.00    0.0
2019/04/20 02:32:30.000   40.536488827   -7.266413084  1082.3490   6   8   0.0799   0.0869   0.1749   0.0398  -0.0825  -0.0695   0.00    0.0
2019/04/20 02:33:00.000   40.536488860   -7.266413070  1082.3450   6   8   0.0653   0.0715   0.1429   0.0316  -0.0664  -0.0564   0.00    0.0
2019/04/20 02:33:30.000   40.536489001   -7.266412967  1082.3332   6   8   0.0508   0.0565   0.1109   0.0236  -0.0501  -0.0438   0.00    0.0
2019/04/20 02:34:00.000   40.536489044   -7.266412941  1082.3449   6   8   0.0367   0.0424   0.0798   0.0160  -0.0341  -0.0316   0.00    0.0
2019/04/20 02:34:30.000   40.536489006   -7.266412829  1082.3594   6   8   0.0237   0.0299   0.0510   0.0096  -0.0190  -0.0201   0.00    0.0
2019/04/20 02:35:00.000   40.536489123   -7.266412880  1082.3304   6   8   0.0153   0.0224   0.0323   0.0066  -0.0092  -0.0116   0.00    0.0
2019/04/20 02:35:30.000   40.536489497   -7.266412851  1082.2801   6   8   0.0234   0.0298   0.0506   0.0099  -0.0190  -0.0195   0.00    0.0
2019/04/20 02:36:00.000   40.536489554   -7.266413088  1082.2913   6   8   0.0364   0.0420   0.0790   0.0155  -0.0340  -0.0302   0.00    0.0
2019/04/20 02:36:30.000   40.536489297   -7.266412865  1082.3387   6   8   0.0502   0.0558   0.1101   0.0222  -0.0494  -0.0415   0.00    0.0
2019/04/20 02:37:00.000   40.536489319   -7.266412650  1082.3083   6   8   0.0645   0.0703   0.1421   0.0288  -0.0649  -0.0529   0.00    0.0
2019/04/20 02:37:30.000   40.536489422   -7.266412911  1082.3019   6   8   0.0789   0.0852   0.1744   0.0353  -0.0802  -0.0643   0.00    0.0
2019/04/20 02:38:00.000   40.536489286   -7.266413033  1082.3079   6   8   0.0643   0.0702   0.1420   0.0282  -0.0646  -0.0526   0.00    0.0
2019/04/20 02:38:30.000   40.536489341   -7.266412889  1082.3134   6   8   0.0500   0.0556   0.1099   0.0211  -0.0490  -0.0406   0.00    0.0
2019/04/20 02:39:00.000   40.536489241   -7.266412834  1082.3196   6   8   0.0361   0.0417   0.0786   0.0145  -0.0335  -0.0291   0.00    0.0
2019/04/20 02:39:30.000   40.536489154   -7.266412852  1082.3449   6   8   0.0234   0.0296   0.0500   0.0091  -0.0189  -0.0183   0.00    0.0
2019/04/20 02:40:00.000   40.536489178   -7.266412896  1082.3293   6   8   0.0151   0.0221   0.0322   0.0062  -0.0085  -0.0102   0.00    0.0
2019/04/20 02:40:30.000   40.536489394   -7.266412982  1082.3224   6   8   0.0230   0.0294   0.0499   0.0092  -0.0189  -0.0177   0.00    0.0
2019/04/20 02:41:00.000   40.536489418   -7.266412783  1082.3170   6   8   0.0358   0.0414   0.0782   0.0139  -0.0331  -0.0279   0.00    0.0
2019/04/20 02:41:30.000   40.536489512   -7.266412817  1082.3061   6   8   0.0496   0.0549   0.1092   0.0194  -0.0479  -0.0384   0.00    0.0
2019/04/20 02:42:00.000   40.536489669   -7.266413090  1082.2620   6   8   0.0637   0.0691   0.1411   0.0250  -0.0626  -0.0491   0.00    0.0
2019/04/20 02:42:30.000   40.536489442   -7.266413283  1082.2953   6   8   0.0780   0.0836   0.1733   0.0304  -0.0772  -0.0598   0.00    0.0
2019/04/20 02:43:00.000   40.536489358   -7.266413262  1082.3287   6   8   0.0640   0.0691   0.1416   0.0247  -0.0622  -0.0479   0.00    0.0
2019/04/20 02:43:30.000   40.536489287   -7.266413211  1082.3526   6   8   0.0498   0.0547   0.1095   0.0186  -0.0472  -0.0367   0.00    0.0
2019/04/20 02:44:00.000   40.536489218   -7.266413032  1082.3363   6   8   0.0361   0.0412   0.0785   0.0131  -0.0324  -0.0259   0.00    0.0
2019/04/20 02:44:30.000   40.536489174   -7.266412961  1082.3356   6   8   0.0233   0.0293   0.0502   0.0084  -0.0184  -0.0159   0.00    0.0
2019/04/20 02:45:00.000   40.536489163   -7.266412894  1082.3303   6   8   0.0149   0.0217   0.0326   0.0063  -0.0089  -0.0090   0.00    0.0
2019/04/20 02:45:30.000   40.536489252   -7.266413186  1082.3173   6   8   0.0231   0.0292   0.0501   0.0086  -0.0183  -0.0156   0.00    0.0
2019/04/20 02:46:00.000   40.536489350   -7.266413186  1082.2900   6   8   0.0359   0.0408   0.0782   0.0123  -0.0319  -0.0246   0.00    0.0
2019/04/20 02:46:30.000   40.536489528   -7.266413391  1082.2884   6   8   0.0496   0.0540   0.1089   0.0167  -0.0458  -0.0343   0.00    0.0
2019/04/20 02:47:00.000   40.536489487   -7.266413408  1082.2900   6   8   0.0636   0.0680   0.1404   0.0211  -0.0597  -0.0442   0.00    0.0
2019/04/20 02:47:30.000   40.536489510   -7.266413353  1082.3051   6   8   0.0778   0.0822   0.1723   0.0253  -0.0735  -0.0539   0.00    0.0
2019/04/20 02:48:00.000   40.536489430   -7.266413101  1082.2832   6   8   0.0631   0.0674   0.1392   0.0190  -0.0590  -0.0437   0.00    0.0
2019/04/20 02:48:30.000   40.536489299   -7.266412866  1082.3069   6   8   0.0491   0.0533   0.1075   0.0142  -0.0448  -0.0332   0.00    0.0
2019/04/20 02:49:00.000   40.536489153   -7.266413082  1082.3292   6   8   0.0355   0.0401   0.0770   0.0099  -0.0308  -0.0229   0.00    0.0
2019/04/20 02:49:30.000   40.536489118   -7.266412875  1082.3196   6   8   0.0228   0.0285   0.0495   0.0070  -0.0176  -0.0134   0.00    0.0
2019/04/20 02:50:00.000   40.536489127   -7.266412790  1082.3278   6   8   0.0146   0.0214   0.0333   0.0054  -0.0083  -0.0080   0.00    0.0
2019/04/20 02:50:30.000   40.536489122   -7.266412900  1082.3454   6   8   0.0228   0.0285   0.0497   0.0067  -0.0174  -0.0128   0.00    0.0
2019/04/20 02:51:00.000   40.536489047   -7.266413255  1082.3605   6   8   0.0354   0.0398   0.0769   0.0090  -0.0300  -0.0213   0.00    0.0
2019/04/20 02:51:30.000   40.536489168   -7.266413807  1082.3400   6   8   0.0490   0.0527   0.1069   0.0118  -0.0431  -0.0305   0.00    0.0
2019/04/20 02:52:00.000   40.536489303   -7.266413862  1082.3391   6   8   0.0630   0.0663   0.1377   0.0147  -0.0562  -0.0398   0.00    0.0
2019/04/20 02:52:30.000   40.536489261   -7.266413489  1082.2973   6   8   0.0771   0.0803   0.1688   0.0173  -0.0691  -0.0489   0.00    0.0
2019/04/20 02:53:00.000   40.536489171   -7.266413049  1082.2580   6   8   0.0632   0.0662   0.1378   0.0144  -0.0553  -0.0380   0.00    0.0
2019/04/20 02:53:30.000   40.536489159   -7.266413134  1082.2899   6   8   0.0492   0.0525   0.1069   0.0110  -0.0419  -0.0280   0.00    0.0
2019/04/20 02:54:00.000   40.536489202   -7.266413146  1082.3172   6   8   0.0357   0.0395   0.0772   0.0081  -0.0287  -0.0181   0.00    0.0
2019/04/20 02:54:30.000   40.536489150   -7.266413135  1082.3389   6   8   0.0230   0.0281   0.0505   0.0064  -0.0165  -0.0089   0.00    0.0
2019/04/20 02:55:00.000   40.536489151   -7.266412889  1082.3239   6   8   0.0147   0.0209   0.0342   0.0040  -0.0080  -0.0047   0.00    0.0
2019/04/20 02:55:30.000   40.536489413   -7.266413229  1082.3099   6   8   0.0232   0.0280   0.0514   0.0064  -0.0161  -0.0062   0.00    0.0
2019/04/20 02:56:00.000   40.536489692   -7.266413169  1082.3326   6   8   0.0363   0.0392   0.0792   0.0081  -0.0272  -0.0120   0.00    0.0
2019/04/20 02:56:30.000   40.536489817   -7.266413126  1082.3336   6   8   0.0503   0.0520   0.1096   0.0098  -0.0389  -0.0187   0.00    0.0
2019/04/20 02:57:00.000   40.536489769   -7.266413045  1082.3403   6   8   0.0648   0.0654   0.1411   0.0117  -0.0505  -0.0249   0.00    0.0
2019/04/20 02:57:30.000   40.536489738   -7.266413164  1082.3311   6   8   0.0796   0.0793   0.1732   0.0135  -0.0618  -0.0299   0.00    0.0
2019/04/20 02:58:00.000   40.536489464   -7.266413059  1082.3268   6   8   0.0667   0.0655   0.1464   0.0130  -0.0476   0.0078   0.00    0.0
2019/04/20 02:58:30.000   40.536489482   -7.266413015  1082.3706   6   7   0.0577   0.0526   0.1296   0.0179  -0.0272   0.0409   0.00    0.0
2019/04/20 02:59:00.000   40.536489510   -7.266413382  1082.3108   6   7   0.0409   0.0395   0.0923   0.0125  -0.0187   0.0285   0.00    0.0
2019/04/20 02:59:30.000   40.536489387   -7.266413230  1082.3117   6   7   0.0252   0.0281   0.0577   0.0079  -0.0115   0.0159   0.00    0.0
2019/04/20 03:00:00.000   40.536489155   -7.266412890  1082.3295   6   7   0.0149   0.0205   0.0366   0.0051  -0.0062   0.0067   0.00    0.0
2019/04/20 03:00:30.000   40.536489188   -7.266412731  1082.3648   6   7   0.0253   0.0280   0.0581   0.0077  -0.0112   0.0167   0.00    0.0
2019/04/20 03:01:00.000   40.536489318   -7.266412994  1082.3375   6   7   0.0413   0.0392   0.0939   0.0119  -0.0171   0.0311   0.00    0.0
2019/04/20 03:01:30.000   40.536489409   -7.266413397  1082.2773   6   7   0.0587   0.0521   0.1334   0.0166  -0.0233   0.0466   0.00    0.0
2019/04/20 03:02:00.000   40.536489460   -7.266413351  1082.3037   6   7   0.0766   0.0657   0.1743   0.0214  -0.0291   0.0627   0.00    0.0
2019/04/20 03:02:30.000   40.536489396   -7.266413230  1082.2763   6   7   0.0947   0.0796   0.2160   0.0261  -0.0345   0.0793   0.00    0.0
2019/04/20 03:03:00.000   40.536489391   -7.266413386  1082.2652   6   7   0.0772   0.0655   0.1763   0.0206  -0.0275   0.0651   0.00    0.0
2019/04/20 03:03:30.000   40.536489499   -7.266413412  1082.2630   6   7   0.0596   0.0518   0.1364   0.0155  -0.0206   0.0503   0.00    0.0
2019/04/20 03:04:00.000   40.536489413   -7.266413093  1082.2725   6   7   0.0422   0.0389   0.0970   0.0107  -0.0147   0.0350   0.00    0.0
2019/04/20 03:04:30.000   40.536489208   -7.266412721  1082.2784   6   7   0.0258   0.0276   0.0605   0.0069  -0.0104   0.0198   0.00    0.0
2019/04/20 03:05:00.000   40.536489118   -7.266412795  1082.3346   6   7   0.0148   0.0199   0.0381   0.0056  -0.0076   0.0098   0.00    0.0
2019/04/20 03:05:30.000   40.536489258   -7.266413095  1082.3192   6   7   0.0259   0.0274   0.0609   0.0067  -0.0098   0.0204   0.00    0.0
2019/04/20 03:06:00.000   40.536489394   -7.266413404  1082.2996   6   7   0.0427   0.0386   0.0989   0.0103  -0.0123   0.0374   0.00    0.0
2019/04/20 03:06:30.000   40.536489513   -7.266413261  1082.3087   6   7   0.0609   0.0514   0.1407   0.0145  -0.0145   0.0555   0.00    0.0
2019/04/20 03:07:00.000   40.536489539   -7.266413398  1082.2125   6   7   0.0796   0.0649   0.1840   0.0190  -0.0156   0.0743   0.00    0.0
2019/04/20 03:07:30.000   40.536489484   -7.266413079  1082.2410   6   7   0.0986   0.0787   0.2281   0.0234  -0.0152   0.0936   0.00    0.0
2019/04/20 03:08:00.000   40.536489432   -7.266412950  1082.2599   6   7   0.0800   0.0647   0.1857   0.0190  -0.0113   0.0761   0.00    0.0
2019/04/20 03:08:30.000   40.536489327   -7.266412827  1082.2617   6   7   0.0616   0.0511   0.1435   0.0144  -0.0083   0.0585   0.00    0.0
2019/04/20 03:09:00.000   40.536489306   -7.266413096  1082.2809   6   7   0.0434   0.0383   0.1018   0.0099  -0.0078   0.0405   0.00    0.0
2019/04/20 03:09:30.000   40.536489240   -7.266412989  1082.2879   6   7   0.0263   0.0271   0.0633   0.0060  -0.0083   0.0229   0.00    0.0
2019/04/20 03:10:00.000   40.536489124   -7.266412857  1082.3270   6   7   0.0156   0.0203   0.0404   0.0019  -0.0071   0.0116   0.00    0.0
2019/04/20 03:10:30.000   40.536489166   -7.266413012  1082.3438   6   7   0.0264   0.0269   0.0638   0.0059  -0.0076   0.0235   0.00    0.0
2019/04/20 03:11:00.000   40.536489252   -7.266413077  1082.4017   6   7   0.0441   0.0381   0.1039   0.0097   0.0033   0.0428   0.00    0.0
2019/04/20 03:11:30.000   40.536489314   -7.266413172  1082.3913   6   7   0.0632   0.0508   0.1481   0.0140   0.0131   0.0634   0.00    0.0
2019/04/20 03:12:00.000   40.536489384   -7.266413001  1082.3677   6   7   0.0828   0.0642   0.1939   0.0183   0.0211   0.0847   0.00    0.0
2019/04/20 03:12:30.000   40.536489407   -7.266412747  1082.3588   6   7   0.1028   0.0781   0.2405   0.0227   0.0292   0.1065   0.00    0.0
2019/04/20 03:13:00.000   40.536489438   -7.266412941  1082.3264   6   7   0.0840   0.0643   0.1964   0.0178   0.0238   0.0874   0.00    0.0
2019/04/20 03:13:30.000   40.536489486   -7.266412998  1082.2859   6   7   0.0647   0.0508   0.1518   0.0133   0.0179   0.0672   0.00    0.0
2019/04/20 03:14:00.000   40.536489297   -7.266413022  1082.3499   6   7   0.0456   0.0380   0.1078   0.0088   0.0103   0.0467   0.00    0.0
2019/04/20 03:14:30.000   40.536489190   -7.266412809  1082.3363   6   7   0.0274   0.0267   0.0671   0.0049  -0.0056   0.0268   0.00    0.0
2019/04/20 03:15:00.000   40.536489184   -7.266412859  1082.3304   6   7   0.0157   0.0197   0.0429  -0.0007  -0.0078   0.0139   0.00    0.0
2019/04/20 03:15:30.000   40.536489355   -7.266412940  1082.3041   6   7   0.0275   0.0266   0.0677   0.0047  -0.0052   0.0273   0.00    0.0
2019/04/20 03:16:00.000   40.536489518   -7.266413331  1082.2132   6   7   0.0462   0.0379   0.1099   0.0088   0.0135   0.0487   0.00    0.0
2019/04/20 03:16:30.000   40.536489512   -7.266413275  1082.2117   6   7   0.0663   0.0506   0.1564   0.0134   0.0241   0.0716   0.00    0.0
2019/04/20 03:17:00.000   40.536489497   -7.266413180  1082.2258   6   7   0.0870   0.0642   0.2044   0.0181   0.0345   0.0951   0.00    0.0
2019/04/20 03:17:30.000   40.536489519   -7.266412900  1082.2989   6   7   0.1079   0.0781   0.2533   0.0228   0.0451   0.1190   0.00    0.0
2019/04/20 03:18:00.000   40.536489431   -7.266412678  1082.3768   6   7   0.0877   0.0643   0.2068   0.0184   0.0371   0.0970   0.00    0.0
2019/04/20 03:18:30.000   40.536489316   -7.266412754  1082.3846   6   7   0.0675   0.0508   0.1598   0.0137   0.0279   0.0745   0.00    0.0
2019/04/20 03:19:00.000   40.536489319   -7.266412872  1082.3894   6   7   0.0474   0.0379   0.1137   0.0089   0.0177   0.0518   0.00    0.0
2019/04/20 03:19:30.000   40.536489230   -7.266412915  1082.3657   6   7   0.0283   0.0266   0.0712   0.0041   0.0039   0.0299   0.00    0.0
2019/04/20 03:20:00.000   40.536489172   -7.266412850  1082.3369   6   7   0.0161   0.0196   0.0459   0.0022  -0.0084   0.0152   0.00    0.0
2019/04/20 03:20:30.000   40.536489266   -7.266413084  1082.3348   6   7   0.0284   0.0264   0.0719   0.0043   0.0046   0.0302   0.00    0.0
2019/04/20 03:21:00.000   40.536489345   -7.266412987  1082.3737   6   7   0.0480   0.0378   0.1157   0.0092   0.0198   0.0534   0.00    0.0
2019/04/20 03:21:30.000   40.536489359   -7.266412973  1082.3498   6   7   0.0689   0.0507   0.1638   0.0142   0.0325   0.0780   0.00    0.0
2019/04/20 03:22:00.000   40.536489336   -7.266412679  1082.3096   6   7   0.0904   0.0644   0.2136   0.0193   0.0451   0.1032   0.00    0.0
2019/04/20 03:22:30.000   40.536489520   -7.266412934  1082.3034   6   7   0.1122   0.0785   0.2641   0.0244   0.0579   0.1287   0.00    0.0
2019/04/20 03:23:00.000   40.536489498   -7.266413096  1082.2877   6   7   0.0910   0.0643   0.2146   0.0196   0.0468   0.1044   0.00    0.0
2019/04/20 03:23:30.000   40.536489340   -7.266412968  1082.2553   6   7   0.0699   0.0506   0.1658   0.0145   0.0352   0.0799   0.00    0.0
2019/04/20 03:24:00.000   40.536489333   -7.266413204  1082.2635   6   7   0.0488   0.0377   0.1181   0.0091   0.0226   0.0555   0.00    0.0
2019/04/20 03:24:30.000   40.536489301   -7.266412982  1082.3371   6   7   0.0290   0.0262   0.0746   0.0035   0.0075   0.0322   0.00    0.0
2019/04/20 03:25:00.000   40.536489202   -7.266412819  1082.3181   6   7   0.0165   0.0194   0.0491  -0.0027  -0.0085   0.0174   0.00    0.0
2019/04/20 03:25:30.000   40.536489097   -7.266412967  1082.3262   6   7   0.0290   0.0261   0.0754   0.0035   0.0082   0.0325   0.00    0.0
2019/04/20 03:26:00.000   40.536489267   -7.266413116  1082.3462   6   7   0.0493   0.0376   0.1196   0.0093   0.0242   0.0564   0.00    0.0
2019/04/20 03:26:30.000   40.536489382   -7.266413142  1082.3716   6   7   0.0709   0.0508   0.1684   0.0148   0.0387   0.0820   0.00    0.0
2019/04/20 03:27:00.000   40.536489256   -7.266412910  1082.3204   6   7   0.0929   0.0647   0.2188   0.0202   0.0531   0.1081   0.00    0.0
2019/04/20 03:27:30.000   40.536489330   -7.266412921  1082.3316   6   7   0.1152   0.0789   0.2697   0.0256   0.0676   0.1343   0.00    0.0
2019/04/20 03:28:00.000   40.536489235   -7.266412979  1082.2781   6   7   0.0943   0.0654   0.2214   0.0206   0.0556   0.1098   0.00    0.0
2019/04/20 03:28:30.000   40.536489209   -7.266412959  1082.2765   6   8   0.0630   0.0479   0.1280  -0.0213  -0.0205   0.0548   0.00    0.0
2019/04/20 03:29:00.000   40.536489325   -7.266412941  1082.3090   6   8   0.0446   0.0361   0.0936  -0.0150  -0.0167   0.0388   0.00    0.0
