% program   : RTKPOST ver.2.4.3 b34
% inp file  : D:\Mestrado\GE\TP3\Kaik\kaik3180.16o
% inp file  : D:\Mestrado\GE\TP3\Kaik\brdc3180.16n
% inp file  : D:\Mestrado\GE\TP3\Kaik\COD19230.EPH
% inp file  : D:\Mestrado\GE\TP3\Kaik\COD19230.CLK_05S
% obs start : 2016/11/13 10:00:00.0 GPST (week1923  36000.0s)
% obs end   : 2016/11/13 11:59:59.0 GPST (week1923  43199.0s)
% pos mode  : PPP Kinematic
% solution  : Combined
% elev mask : 10.0 deg
% dynamics  : off
% tidecorr  : off
% tropo opt : Estimate ZTD
% ephemeris : Precise
% navi sys  : GPS
% antenna1  :                       ( 0.0000  0.0000  0.0000)
%
% (lat/lon/height=WGS84/ellipsoidal,Q=1:fix,2:float,3:sbas,4:dgps,5:single,6:ppp,ns=# of satellites)
%  GPST                  latitude(deg) longitude(deg)  height(m)   Q  ns   sdn(m)   sde(m)   sdu(m)  sdne(m)  sdeu(m)  sdun(m) age(s)  ratio
2016/11/13 10:00:00.000  -42.425461629  173.533651881   314.8612   6   7   0.0352   0.0252   0.0709   0.0172   0.0226   0.0424   0.00    0.0
2016/11/13 10:00:01.000  -42.425461636  173.533651887   314.8575   6   7   0.0359   0.0255   0.0723   0.0177   0.0232   0.0434   0.00    0.0
2016/11/13 10:00:02.000  -42.425461685  173.533651861   314.8425   6   7   0.0369   0.0259   0.0742   0.0182   0.0239   0.0447   0.00    0.0
2016/11/13 10:00:03.000  -42.425461629  173.533651874   314.8528   6   7   0.0295   0.0229   0.0598   0.0141   0.0179   0.0348   0.00    0.0
2016/11/13 10:00:04.000  -42.425461634  173.533651876   314.8517   6   7   0.0295   0.0228   0.0595   0.0138   0.0178   0.0346   0.00    0.0
2016/11/13 10:00:05.000  -42.425461605  173.533651874   314.8638   6   7   0.0294   0.0227   0.0594   0.0140   0.0176   0.0346   0.00    0.0
2016/11/13 10:00:06.000  -42.425461644  173.533651865   314.8513   6   7   0.0294   0.0229   0.0595   0.0140   0.0178   0.0346   0.00    0.0
2016/11/13 10:00:07.000  -42.425461625  173.533651858   314.8545   6   7   0.0295   0.0228   0.0597   0.0140   0.0179   0.0348   0.00    0.0
2016/11/13 10:00:08.000  -42.425461608  173.533651892   314.8660   6   7   0.0295   0.0230   0.0597   0.0141   0.0178   0.0348   0.00    0.0
2016/11/13 10:00:09.000  -42.425461630  173.533651905   314.8633   6   7   0.0295   0.0229   0.0595   0.0139   0.0178   0.0347   0.00    0.0
2016/11/13 10:00:10.000  -42.425461638  173.533651902   314.8615   6   7   0.0294   0.0227   0.0594   0.0140   0.0178   0.0346   0.00    0.0
2016/11/13 10:00:11.000  -42.425461637  173.533651913   314.8535   6   7   0.0294   0.0228   0.0595   0.0141   0.0178   0.0346   0.00    0.0
2016/11/13 10:00:12.000  -42.425461677  173.533651874   314.8473   6   7   0.0296   0.0229   0.0598   0.0141   0.0179   0.0348   0.00    0.0
2016/11/13 10:00:13.000  -42.425461656  173.533651857   314.8497   6   7   0.0296   0.0228   0.0598   0.0141   0.0179   0.0348   0.00    0.0
2016/11/13 10:00:14.000  -42.425461626  173.533651876   314.8561   6   7   0.0295   0.0228   0.0595   0.0141   0.0178   0.0347   0.00    0.0
2016/11/13 10:00:15.000  -42.425461661  173.533651873   314.8525   6   7   0.0295   0.0228   0.0594   0.0140   0.0180   0.0346   0.00    0.0
2016/11/13 10:00:16.000  -42.425461648  173.533651857   314.8562   6   7   0.0295   0.0228   0.0595   0.0139   0.0179   0.0347   0.00    0.0
2016/11/13 10:00:17.000  -42.425461646  173.533651869   314.8546   6   7   0.0296   0.0228   0.0597   0.0141   0.0180   0.0348   0.00    0.0
2016/11/13 10:00:18.000  -42.425461643  173.533651851   314.8555   6   7   0.0296   0.0228   0.0598   0.0141   0.0180   0.0349   0.00    0.0
2016/11/13 10:00:19.000  -42.425461642  173.533651848   314.8597   6   7   0.0295   0.0228   0.0595   0.0140   0.0179   0.0348   0.00    0.0
2016/11/13 10:00:20.000  -42.425461581  173.533651880   314.8620   6   7   0.0294   0.0228   0.0594   0.0140   0.0179   0.0347   0.00    0.0
2016/11/13 10:00:21.000  -42.425461663  173.533651842   314.8510   6   7   0.0295   0.0228   0.0595   0.0141   0.0179   0.0347   0.00    0.0
2016/11/13 10:00:22.000  -42.425461660  173.533651848   314.8565   6   7   0.0296   0.0228   0.0597   0.0140   0.0180   0.0349   0.00    0.0
2016/11/13 10:00:23.000  -42.425461638  173.533651902   314.8608   6   7   0.0296   0.0228   0.0598   0.0142   0.0180   0.0349   0.00    0.0
2016/11/13 10:00:24.000  -42.425461645  173.533651871   314.8541   6   7   0.0295   0.0228   0.0595   0.0140   0.0180   0.0348   0.00    0.0
2016/11/13 10:00:25.000  -42.425461658  173.533651870   314.8472   6   7   0.0295   0.0229   0.0594   0.0141   0.0179   0.0347   0.00    0.0
2016/11/13 10:00:26.000  -42.425461609  173.533651872   314.8573   6   7   0.0295   0.0228   0.0595   0.0142   0.0179   0.0347   0.00    0.0
2016/11/13 10:00:27.000  -42.425461617  173.533651863   314.8533   6   7   0.0297   0.0229   0.0597   0.0141   0.0181   0.0349   0.00    0.0
2016/11/13 10:00:28.000  -42.425461616  173.533651860   314.8578   6   7   0.0296   0.0229   0.0598   0.0142   0.0181   0.0350   0.00    0.0
2016/11/13 10:00:29.000  -42.425461673  173.533651836   314.8411   6   7   0.0295   0.0227   0.0595   0.0141   0.0180   0.0348   0.00    0.0
2016/11/13 10:00:30.000  -42.425461603  173.533651871   314.8559   6   7   0.0295   0.0229   0.0595   0.0142   0.0179   0.0347   0.00    0.0
2016/11/13 10:00:31.000  -42.425461608  173.533651897   314.8527   6   7   0.0295   0.0228   0.0595   0.0141   0.0180   0.0348   0.00    0.0
2016/11/13 10:00:32.000  -42.425461646  173.533651855   314.8530   6   7   0.0297   0.0228   0.0597   0.0142   0.0181   0.0349   0.00    0.0
2016/11/13 10:00:33.000  -42.425461627  173.533651869   314.8552   6   7   0.0297   0.0228   0.0598   0.0143   0.0181   0.0350   0.00    0.0
2016/11/13 10:00:34.000  -42.425461634  173.533651867   314.8475   6   7   0.0296   0.0228   0.0595   0.0142   0.0180   0.0348   0.00    0.0
2016/11/13 10:00:35.000  -42.425461661  173.533651865   314.8495   6   7   0.0295   0.0227   0.0594   0.0142   0.0179   0.0348   0.00    0.0
2016/11/13 10:00:36.000  -42.425461629  173.533651862   314.8635   6   7   0.0296   0.0227   0.0595   0.0142   0.0181   0.0348   0.00    0.0
2016/11/13 10:00:37.000  -42.425461633  173.533651843   314.8604   6   7   0.0297   0.0229   0.0597   0.0142   0.0182   0.0350   0.00    0.0
2016/11/13 10:00:38.000  -42.425461633  173.533651835   314.8579   6   7   0.0297   0.0228   0.0598   0.0142   0.0183   0.0350   0.00    0.0
2016/11/13 10:00:39.000  -42.425461660  173.533651831   314.8494   6   7   0.0296   0.0227   0.0595   0.0141   0.0180   0.0348   0.00    0.0
2016/11/13 10:00:40.000  -42.425461637  173.533651825   314.8597   6   7   0.0296   0.0227   0.0594   0.0141   0.0182   0.0348   0.00    0.0
2016/11/13 10:00:41.000  -42.425461664  173.533651844   314.8549   6   7   0.0296   0.0228   0.0595   0.0142   0.0180   0.0349   0.00    0.0
2016/11/13 10:00:42.000  -42.425461629  173.533651860   314.8530   6   7   0.0297   0.0228   0.0598   0.0143   0.0182   0.0350   0.00    0.0
2016/11/13 10:00:43.000  -42.425461614  173.533651849   314.8539   6   7   0.0297   0.0228   0.0598   0.0143   0.0182   0.0351   0.00    0.0
2016/11/13 10:00:44.000  -42.425461637  173.533651841   314.8528   6   7   0.0296   0.0228   0.0595   0.0142   0.0180   0.0349   0.00    0.0
2016/11/13 10:00:45.000  -42.425461602  173.533651835   314.8569   6   7   0.0296   0.0227   0.0594   0.0143   0.0181   0.0348   0.00    0.0
2016/11/13 10:00:46.000  -42.425461633  173.533651841   314.8537   6   7   0.0296   0.0227   0.0595   0.0142   0.0181   0.0349   0.00    0.0
2016/11/13 10:00:47.000  -42.425461651  173.533651820   314.8478   6   7   0.0297   0.0228   0.0597   0.0144   0.0183   0.0351   0.00    0.0
2016/11/13 10:00:48.000  -42.425461647  173.533651811   314.8413   6   7   0.0298   0.0228   0.0598   0.0143   0.0184   0.0351   0.00    0.0
2016/11/13 10:00:49.000  -42.425461630  173.533651823   314.8483   6   7   0.0296   0.0228   0.0595   0.0143   0.0181   0.0349   0.00    0.0
2016/11/13 10:00:50.000  -42.425461612  173.533651829   314.8544   6   7   0.0296   0.0226   0.0594   0.0142   0.0182   0.0348   0.00    0.0
2016/11/13 10:00:51.000  -42.425461607  173.533651860   314.8546   6   7   0.0296   0.0228   0.0595   0.0142   0.0181   0.0349   0.00    0.0
2016/11/13 10:00:52.000  -42.425461664  173.533651824   314.8499   6   7   0.0298   0.0228   0.0597   0.0143   0.0183   0.0351   0.00    0.0
2016/11/13 10:00:53.000  -42.425461680  173.533651825   314.8485   6   7   0.0298   0.0228   0.0598   0.0143   0.0183   0.0351   0.00    0.0
2016/11/13 10:00:54.000  -42.425461676  173.533651855   314.8417   6   7   0.0296   0.0227   0.0595   0.0143   0.0182   0.0349   0.00    0.0
2016/11/13 10:00:55.000  -42.425461638  173.533651823   314.8468   6   7   0.0296   0.0226   0.0594   0.0143   0.0182   0.0349   0.00    0.0
2016/11/13 10:00:56.000  -42.425461657  173.533651836   314.8477   6   7   0.0297   0.0227   0.0595   0.0143   0.0182   0.0349   0.00    0.0
2016/11/13 10:00:57.000  -42.425461602  173.533651842   314.8517   6   7   0.0298   0.0228   0.0597   0.0145   0.0182   0.0351   0.00    0.0
2016/11/13 10:00:58.000  -42.425461613  173.533651828   314.8539   6   7   0.0298   0.0229   0.0598   0.0143   0.0183   0.0351   0.00    0.0
2016/11/13 10:00:59.000  -42.425461667  173.533651814   314.8418   6   7   0.0297   0.0228   0.0595   0.0143   0.0183   0.0350   0.00    0.0
2016/11/13 10:01:00.000  -42.425461664  173.533651814   314.8496   6   7   0.0297   0.0227   0.0595   0.0142   0.0182   0.0349   0.00    0.0
2016/11/13 10:01:01.000  -42.425461662  173.533651811   314.8387   6   7   0.0297   0.0227   0.0595   0.0143   0.0182   0.0349   0.00    0.0
2016/11/13 10:01:02.000  -42.425461680  173.533651795   314.8290   6   7   0.0298   0.0228   0.0597   0.0144   0.0184   0.0351   0.00    0.0
2016/11/13 10:01:03.000  -42.425461663  173.533651799   314.8410   6   7   0.0298   0.0226   0.0598   0.0145   0.0184   0.0351   0.00    0.0
2016/11/13 10:01:04.000  -42.425461682  173.533651807   314.8444   6   7   0.0297   0.0228   0.0595   0.0142   0.0182   0.0350   0.00    0.0
2016/11/13 10:01:05.000  -42.425461686  173.533651814   314.8436   6   7   0.0296   0.0228   0.0595   0.0143   0.0182   0.0349   0.00    0.0
2016/11/13 10:01:06.000  -42.425461677  173.533651817   314.8472   6   7   0.0297   0.0227   0.0595   0.0143   0.0183   0.0349   0.00    0.0
2016/11/13 10:01:07.000  -42.425461624  173.533651809   314.8546   6   7   0.0298   0.0228   0.0597   0.0144   0.0184   0.0352   0.00    0.0
2016/11/13 10:01:08.000  -42.425461695  173.533651789   314.8418   6   7   0.0298   0.0228   0.0598   0.0144   0.0183   0.0352   0.00    0.0
2016/11/13 10:01:09.000  -42.425461674  173.533651827   314.8489   6   7   0.0297   0.0228   0.0595   0.0145   0.0183   0.0350   0.00    0.0
2016/11/13 10:01:10.000  -42.425461677  173.533651800   314.8477   6   7   0.0297   0.0227   0.0594   0.0143   0.0182   0.0350   0.00    0.0
2016/11/13 10:01:11.000  -42.425461685  173.533651795   314.8432   6   7   0.0297   0.0227   0.0595   0.0143   0.0183   0.0350   0.00    0.0
2016/11/13 10:01:12.000  -42.425461602  173.533651834   314.8595   6   7   0.0298   0.0228   0.0597   0.0144   0.0184   0.0351   0.00    0.0
2016/11/13 10:01:13.000  -42.425461670  173.533651799   314.8492   6   7   0.0299   0.0227   0.0598   0.0143   0.0184   0.0352   0.00    0.0
2016/11/13 10:01:14.000  -42.425461682  173.533651807   314.8421   6   7   0.0297   0.0228   0.0595   0.0142   0.0184   0.0350   0.00    0.0
2016/11/13 10:01:15.000  -42.425461681  173.533651780   314.8425   6   7   0.0297   0.0227   0.0594   0.0143   0.0183   0.0350   0.00    0.0
2016/11/13 10:01:16.000  -42.425461705  173.533651758   314.8468   6   7   0.0298   0.0228   0.0595   0.0144   0.0184   0.0350   0.00    0.0
2016/11/13 10:01:17.000  -42.425461694  173.533651785   314.8500   6   7   0.0299   0.0227   0.0597   0.0145   0.0184   0.0352   0.00    0.0
2016/11/13 10:01:18.000  -42.425461690  173.533651798   314.8529   6   7   0.0299   0.0227   0.0598   0.0146   0.0185   0.0353   0.00    0.0
2016/11/13 10:01:19.000  -42.425461727  173.533651747   314.8427   6   7   0.0297   0.0228   0.0596   0.0143   0.0183   0.0350   0.00    0.0
2016/11/13 10:01:20.000  -42.425461708  173.533651785   314.8501   6   7   0.0298   0.0227   0.0594   0.0144   0.0184   0.0350   0.00    0.0
2016/11/13 10:01:21.000  -42.425461667  173.533651793   314.8497   6   7   0.0297   0.0228   0.0595   0.0144   0.0184   0.0351   0.00    0.0
2016/11/13 10:01:22.000  -42.425461660  173.533651808   314.8513   6   7   0.0298   0.0227   0.0597   0.0146   0.0184   0.0352   0.00    0.0
2016/11/13 10:01:23.000  -42.425461696  173.533651775   314.8466   6   7   0.0299   0.0228   0.0598   0.0144   0.0185   0.0353   0.00    0.0
2016/11/13 10:01:24.000  -42.425461680  173.533651799   314.8483   6   7   0.0298   0.0226   0.0595   0.0144   0.0184   0.0351   0.00    0.0
2016/11/13 10:01:25.000  -42.425461670  173.533651789   314.8460   6   7   0.0297   0.0227   0.0595   0.0145   0.0184   0.0350   0.00    0.0
2016/11/13 10:01:26.000  -42.425461730  173.533651780   314.8363   6   7   0.0297   0.0226   0.0595   0.0144   0.0184   0.0351   0.00    0.0
2016/11/13 10:01:27.000  -42.425461681  173.533651782   314.8494   6   7   0.0299   0.0227   0.0597   0.0146   0.0185   0.0352   0.00    0.0
2016/11/13 10:01:28.000  -42.425461706  173.533651792   314.8479   6   7   0.0300   0.0227   0.0597   0.0145   0.0186   0.0353   0.00    0.0
2016/11/13 10:01:29.000  -42.425461684  173.533651785   314.8448   6   7   0.0298   0.0226   0.0595   0.0144   0.0186   0.0351   0.00    0.0
2016/11/13 10:01:30.000  -42.425461712  173.533651769   314.8454   6   7   0.0298   0.0227   0.0594   0.0143   0.0184   0.0350   0.00    0.0
2016/11/13 10:01:31.000  -42.425461694  173.533651787   314.8476   6   7   0.0299   0.0226   0.0595   0.0144   0.0184   0.0351   0.00    0.0
2016/11/13 10:01:32.000  -42.425461733  173.533651750   314.8400   6   7   0.0299   0.0227   0.0597   0.0145   0.0186   0.0353   0.00    0.0
2016/11/13 10:01:33.000  -42.425461726  173.533651775   314.8438   6   7   0.0299   0.0228   0.0597   0.0145   0.0186   0.0353   0.00    0.0
2016/11/13 10:01:34.000  -42.425461679  173.533651791   314.8465   6   7   0.0299   0.0227   0.0595   0.0143   0.0185   0.0351   0.00    0.0
2016/11/13 10:01:35.000  -42.425461688  173.533651744   314.8522   6   7   0.0298   0.0227   0.0594   0.0144   0.0185   0.0351   0.00    0.0
2016/11/13 10:01:36.000  -42.425461691  173.533651764   314.8497   6   8   0.0298   0.0227   0.0585   0.0144   0.0190   0.0354   0.00    0.0
2016/11/13 10:01:37.000  -42.425461679  173.533651792   314.8440   6   8   0.0299   0.0227   0.0587   0.0145   0.0190   0.0356   0.00    0.0
2016/11/13 10:01:38.000  -42.425461691  173.533651758   314.8474   6   8   0.0300   0.0227   0.0588   0.0144   0.0189   0.0356   0.00    0.0
2016/11/13 10:01:39.000  -42.425461739  173.533651765   314.8384   6   8   0.0298   0.0227   0.0585   0.0145   0.0188   0.0354   0.00    0.0
2016/11/13 10:01:40.000  -42.425461782  173.533651757   314.8310   6   8   0.0298   0.0227   0.0584   0.0144   0.0187   0.0354   0.00    0.0
2016/11/13 10:01:41.000  -42.425461771  173.533651780   314.8345   6   8   0.0298   0.0226   0.0585   0.0145   0.0187   0.0354   0.00    0.0
2016/11/13 10:01:42.000  -42.425461734  173.533651761   314.8315   6   8   0.0300   0.0227   0.0587   0.0144   0.0190   0.0356   0.00    0.0
2016/11/13 10:01:43.000  -42.425461732  173.533651765   314.8355   6   8   0.0299   0.0226   0.0587   0.0145   0.0190   0.0356   0.00    0.0
2016/11/13 10:01:44.000  -42.425461699  173.533651801   314.8373   6   8   0.0298   0.0226   0.0585   0.0144   0.0189   0.0354   0.00    0.0
2016/11/13 10:01:45.000  -42.425461729  173.533651764   314.8372   6   8   0.0297   0.0226   0.0584   0.0145   0.0188   0.0354   0.00    0.0
2016/11/13 10:01:46.000  -42.425461705  173.533651758   314.8418   6   8   0.0299   0.0227   0.0585   0.0144   0.0189   0.0354   0.00    0.0
2016/11/13 10:01:47.000  -42.425461735  173.533651748   314.8390   6   8   0.0300   0.0227   0.0587   0.0144   0.0190   0.0356   0.00    0.0
2016/11/13 10:01:48.000  -42.425461746  173.533651716   314.8403   6   8   0.0300   0.0228   0.0588   0.0145   0.0189   0.0356   0.00    0.0
2016/11/13 10:01:49.000  -42.425461759  173.533651727   314.8375   6   8   0.0299   0.0226   0.0585   0.0145   0.0188   0.0355   0.00    0.0
2016/11/13 10:01:50.000  -42.425461756  173.533651739   314.8349   6   8   0.0298   0.0227   0.0584   0.0144   0.0188   0.0354   0.00    0.0
2016/11/13 10:01:51.000  -42.425461796  173.533651726   314.8199   6   8   0.0299   0.0226   0.0585   0.0144   0.0190   0.0355   0.00    0.0
2016/11/13 10:01:52.000  -42.425461761  173.533651746   314.8312   6   8   0.0299   0.0227   0.0587   0.0146   0.0190   0.0356   0.00    0.0
2016/11/13 10:01:53.000  -42.425461753  173.533651752   314.8375   6   8   0.0300   0.0227   0.0587   0.0145   0.0191   0.0356   0.00    0.0
2016/11/13 10:01:54.000  -42.425461788  173.533651732   314.8328   6   8   0.0299   0.0227   0.0585   0.0145   0.0189   0.0355   0.00    0.0
2016/11/13 10:01:55.000  -42.425461774  173.533651733   314.8323   6   8   0.0298   0.0225   0.0584   0.0145   0.0189   0.0354   0.00    0.0
2016/11/13 10:01:56.000  -42.425461748  173.533651743   314.8313   6   8   0.0299   0.0227   0.0585   0.0144   0.0189   0.0354   0.00    0.0
2016/11/13 10:01:57.000  -42.425461736  173.533651756   314.8403   6   8   0.0300   0.0227   0.0586   0.0145   0.0190   0.0356   0.00    0.0
2016/11/13 10:01:58.000  -42.425461762  173.533651750   314.8316   6   8   0.0300   0.0227   0.0587   0.0145   0.0190   0.0357   0.00    0.0
2016/11/13 10:01:59.000  -42.425461721  173.533651723   314.8399   6   8   0.0299   0.0227   0.0584   0.0144   0.0190   0.0355   0.00    0.0
2016/11/13 10:02:00.000  -42.425461776  173.533651741   314.8352   6   8   0.0298   0.0227   0.0584   0.0144   0.0190   0.0354   0.00    0.0
2016/11/13 10:02:01.000  -42.425461770  173.533651716   314.8296   6   8   0.0298   0.0226   0.0585   0.0146   0.0189   0.0355   0.00    0.0
2016/11/13 10:02:02.000  -42.425461770  173.533651712   314.8285   6   8   0.0300   0.0227   0.0586   0.0146   0.0191   0.0356   0.00    0.0
2016/11/13 10:02:03.000  -42.425461756  173.533651703   314.8293   6   8   0.0300   0.0226   0.0587   0.0147   0.0191   0.0357   0.00    0.0
2016/11/13 10:02:04.000  -42.425461770  173.533651707   314.8337   6   8   0.0299   0.0226   0.0585   0.0144   0.0191   0.0355   0.00    0.0
2016/11/13 10:02:05.000  -42.425461772  173.533651728   314.8257   6   8   0.0298   0.0226   0.0584   0.0145   0.0189   0.0355   0.00    0.0
2016/11/13 10:02:06.000  -42.425461741  173.533651773   314.8425   6   8   0.0299   0.0225   0.0585   0.0146   0.0190   0.0355   0.00    0.0
2016/11/13 10:02:07.000  -42.425461782  173.533651731   314.8250   6   8   0.0300   0.0226   0.0587   0.0146   0.0191   0.0356   0.00    0.0
2016/11/13 10:02:08.000  -42.425461787  173.533651730   314.8263   6   8   0.0300   0.0228   0.0587   0.0146   0.0192   0.0357   0.00    0.0
2016/11/13 10:02:09.000  -42.425461778  173.533651715   314.8273   6   8   0.0299   0.0226   0.0585   0.0146   0.0190   0.0355   0.00    0.0
2016/11/13 10:02:10.000  -42.425461753  173.533651741   314.8288   6   8   0.0299   0.0226   0.0584   0.0145   0.0190   0.0355   0.00    0.0
2016/11/13 10:02:11.000  -42.425461729  173.533651761   314.8388   6   8   0.0300   0.0226   0.0584   0.0145   0.0191   0.0355   0.00    0.0
2016/11/13 10:02:12.000  -42.425461796  173.533651714   314.8289   6   8   0.0300   0.0227   0.0587   0.0146   0.0191   0.0356   0.00    0.0
2016/11/13 10:02:13.000  -42.425461818  173.533651698   314.8276   6   8   0.0301   0.0227   0.0587   0.0146   0.0191   0.0357   0.00    0.0
2016/11/13 10:02:14.000  -42.425461779  173.533651719   314.8305   6   8   0.0300   0.0227   0.0584   0.0145   0.0190   0.0355   0.00    0.0
2016/11/13 10:02:15.000  -42.425461779  173.533651729   314.8296   6   8   0.0299   0.0226   0.0583   0.0146   0.0190   0.0354   0.00    0.0
2016/11/13 10:02:16.000  -42.425461780  173.533651744   314.8301   6   8   0.0300   0.0226   0.0584   0.0146   0.0190   0.0355   0.00    0.0
2016/11/13 10:02:17.000  -42.425461785  173.533651705   314.8245   6   8   0.0300   0.0227   0.0586   0.0145   0.0191   0.0357   0.00    0.0
2016/11/13 10:02:18.000  -42.425461791  173.533651741   314.8342   6   8   0.0301   0.0226   0.0587   0.0147   0.0192   0.0357   0.00    0.0
2016/11/13 10:02:19.000  -42.425461824  173.533651715   314.8242   6   8   0.0300   0.0226   0.0584   0.0144   0.0191   0.0355   0.00    0.0
2016/11/13 10:02:20.000  -42.425461793  173.533651719   314.8260   6   8   0.0299   0.0227   0.0584   0.0146   0.0190   0.0355   0.00    0.0
2016/11/13 10:02:21.000  -42.425461825  173.533651686   314.8223   6   8   0.0299   0.0225   0.0584   0.0146   0.0190   0.0355   0.00    0.0
2016/11/13 10:02:22.000  -42.425461812  173.533651687   314.8301   6   8   0.0301   0.0226   0.0586   0.0147   0.0192   0.0357   0.00    0.0
2016/11/13 10:02:23.000  -42.425461774  173.533651725   314.8381   6   8   0.0301   0.0226   0.0586   0.0147   0.0192   0.0357   0.00    0.0
2016/11/13 10:02:24.000  -42.425461756  173.533651714   314.8388   6   8   0.0300   0.0226   0.0584   0.0146   0.0191   0.0356   0.00    0.0
2016/11/13 10:02:25.000  -42.425461786  173.533651704   314.8317   6   8   0.0299   0.0226   0.0583   0.0146   0.0191   0.0355   0.00    0.0
2016/11/13 10:02:26.000  -42.425461787  173.533651671   314.8275   6   8   0.0300   0.0225   0.0584   0.0145   0.0191   0.0355   0.00    0.0
2016/11/13 10:02:27.000  -42.425461774  173.533651697   314.8281   6   8   0.0301   0.0226   0.0586   0.0146   0.0192   0.0357   0.00    0.0
2016/11/13 10:02:28.000  -42.425461768  173.533651696   314.8280   6   8   0.0301   0.0226   0.0586   0.0147   0.0191   0.0357   0.00    0.0
2016/11/13 10:02:29.000  -42.425461783  173.533651718   314.8242   6   8   0.0301   0.0226   0.0584   0.0145   0.0191   0.0356   0.00    0.0
2016/11/13 10:02:30.000  -42.425461787  173.533651704   314.8331   6   8   0.0299   0.0226   0.0583   0.0146   0.0191   0.0355   0.00    0.0
2016/11/13 10:02:31.000  -42.425461782  173.533651685   314.8343   6   8   0.0300   0.0226   0.0584   0.0146   0.0190   0.0356   0.00    0.0
2016/11/13 10:02:32.000  -42.425461826  173.533651678   314.8232   6   8   0.0301   0.0227   0.0585   0.0147   0.0193   0.0357   0.00    0.0
2016/11/13 10:02:33.000  -42.425461756  173.533651704   314.8335   6   8   0.0301   0.0226   0.0586   0.0148   0.0192   0.0358   0.00    0.0
2016/11/13 10:02:34.000  -42.425461788  173.533651715   314.8244   6   8   0.0300   0.0226   0.0583   0.0146   0.0191   0.0356   0.00    0.0
2016/11/13 10:02:35.000  -42.425461794  173.533651690   314.8242   6   8   0.0300   0.0226   0.0582   0.0145   0.0191   0.0355   0.00    0.0
2016/11/13 10:02:36.000  -42.425461752  173.533651717   314.8330   6   8   0.0300   0.0225   0.0583   0.0147   0.0192   0.0355   0.00    0.0
2016/11/13 10:02:37.000  -42.425461761  173.533651699   314.8313   6   8   0.0301   0.0225   0.0585   0.0146   0.0192   0.0357   0.00    0.0
2016/11/13 10:02:38.000  -42.425461780  173.533651700   314.8332   6   8   0.0301   0.0226   0.0586   0.0148   0.0193   0.0358   0.00    0.0
2016/11/13 10:02:39.000  -42.425461845  173.533651636   314.8182   6   8   0.0300   0.0226   0.0583   0.0146   0.0192   0.0356   0.00    0.0
2016/11/13 10:02:40.000  -42.425461798  173.533651699   314.8248   6   8   0.0300   0.0225   0.0582   0.0145   0.0191   0.0355   0.00    0.0
2016/11/13 10:02:41.000  -42.425461829  173.533651653   314.8191   6   8   0.0300   0.0226   0.0582   0.0146   0.0192   0.0356   0.00    0.0
2016/11/13 10:02:42.000  -42.425461847  173.533651684   314.8188   6   8   0.0301   0.0226   0.0585   0.0147   0.0192   0.0357   0.00    0.0
2016/11/13 10:02:43.000  -42.425461809  173.533651681   314.8262   6   8   0.0302   0.0226   0.0585   0.0147   0.0192   0.0358   0.00    0.0
2016/11/13 10:02:44.000  -42.425461782  173.533651713   314.8313   6   8   0.0300   0.0226   0.0583   0.0146   0.0191   0.0356   0.00    0.0
2016/11/13 10:02:45.000  -42.425461799  173.533651696   314.8278   6   8   0.0300   0.0224   0.0582   0.0145   0.0191   0.0355   0.00    0.0
2016/11/13 10:02:46.000  -42.425461777  173.533651701   314.8336   6   8   0.0300   0.0224   0.0582   0.0146   0.0191   0.0356   0.00    0.0
2016/11/13 10:02:47.000  -42.425461800  173.533651674   314.8262   6   8   0.0301   0.0227   0.0584   0.0147   0.0193   0.0357   0.00    0.0
2016/11/13 10:02:48.000  -42.425461812  173.533651640   314.8249   6   8   0.0301   0.0227   0.0585   0.0147   0.0193   0.0358   0.00    0.0
2016/11/13 10:02:49.000  -42.425461821  173.533651638   314.8267   6   8   0.0301   0.0225   0.0582   0.0146   0.0191   0.0356   0.00    0.0
2016/11/13 10:02:50.000  -42.425461821  173.533651644   314.8303   6   8   0.0300   0.0226   0.0581   0.0146   0.0190   0.0355   0.00    0.0
2016/11/13 10:02:51.000  -42.425461845  173.533651640   314.8184   6   8   0.0301   0.0225   0.0582   0.0146   0.0192   0.0356   0.00    0.0
2016/11/13 10:02:52.000  -42.425461831  173.533651650   314.8294   6   8   0.0302   0.0227   0.0584   0.0145   0.0192   0.0358   0.00    0.0
2016/11/13 10:02:53.000  -42.425461830  173.533651651   314.8256   6   8   0.0301   0.0226   0.0584   0.0148   0.0193   0.0357   0.00    0.0
2016/11/13 10:02:54.000  -42.425461833  173.533651672   314.8245   6   8   0.0301   0.0226   0.0582   0.0146   0.0192   0.0356   0.00    0.0
2016/11/13 10:02:55.000  -42.425461812  173.533651645   314.8251   6   8   0.0300   0.0225   0.0581   0.0147   0.0192   0.0355   0.00    0.0
2016/11/13 10:02:56.000  -42.425461813  173.533651663   314.8281   6   8   0.0301   0.0226   0.0582   0.0147   0.0192   0.0356   0.00    0.0
2016/11/13 10:02:57.000  -42.425461807  173.533651687   314.8286   6   8   0.0301   0.0226   0.0583   0.0148   0.0192   0.0357   0.00    0.0
2016/11/13 10:02:58.000  -42.425461851  173.533651649   314.8229   6   8   0.0302   0.0225   0.0584   0.0148   0.0194   0.0358   0.00    0.0
2016/11/13 10:02:59.000  -42.425461829  173.533651642   314.8236   6   8   0.0301   0.0224   0.0581   0.0147   0.0193   0.0356   0.00    0.0
2016/11/13 10:03:00.000  -42.425461851  173.533651664   314.8183   6   8   0.0300   0.0225   0.0581   0.0147   0.0192   0.0355   0.00    0.0
2016/11/13 10:03:01.000  -42.425461808  173.533651656   314.8207   6   8   0.0301   0.0225   0.0581   0.0146   0.0192   0.0356   0.00    0.0
2016/11/13 10:03:02.000  -42.425461793  173.533651647   314.8201   6   8   0.0302   0.0226   0.0583   0.0148   0.0193   0.0357   0.00    0.0
2016/11/13 10:03:03.000  -42.425461808  173.533651686   314.8226   6   8   0.0301   0.0226   0.0583   0.0149   0.0193   0.0357   0.00    0.0
2016/11/13 10:03:04.000  -42.425461815  173.533651676   314.8168   6   8   0.0300   0.0225   0.0581   0.0147   0.0192   0.0356   0.00    0.0
2016/11/13 10:03:05.000  -42.425461820  173.533651689   314.8313   6   8   0.0300   0.0226   0.0580   0.0147   0.0191   0.0355   0.00    0.0
2016/11/13 10:03:06.000  -42.425461809  173.533651707   314.8296   6   8   0.0300   0.0226   0.0581   0.0147   0.0191   0.0356   0.00    0.0
2016/11/13 10:03:07.000  -42.425461805  173.533651675   314.8278   6   8   0.0302   0.0225   0.0582   0.0148   0.0193   0.0358   0.00    0.0
2016/11/13 10:03:08.000  -42.425461828  173.533651669   314.8225   6   8   0.0302   0.0225   0.0583   0.0147   0.0192   0.0358   0.00    0.0
2016/11/13 10:03:09.000  -42.425461870  173.533651672   314.8126   6   8   0.0301   0.0225   0.0580   0.0148   0.0192   0.0356   0.00    0.0
2016/11/13 10:03:10.000  -42.425461850  173.533651660   314.8177   6   8   0.0300   0.0225   0.0579   0.0147   0.0192   0.0355   0.00    0.0
2016/11/13 10:03:11.000  -42.425461876  173.533651620   314.8198   6   8   0.0301   0.0227   0.0580   0.0146   0.0191   0.0356   0.00    0.0
2016/11/13 10:03:12.000  -42.425461851  173.533651642   314.8194   6   8   0.0302   0.0226   0.0582   0.0148   0.0193   0.0357   0.00    0.0
2016/11/13 10:03:13.000  -42.425461856  173.533651662   314.8221   6   8   0.0302   0.0226   0.0582   0.0148   0.0193   0.0357   0.00    0.0
2016/11/13 10:03:14.000  -42.425461806  173.533651663   314.8280   6   8   0.0301   0.0225   0.0579   0.0147   0.0193   0.0356   0.00    0.0
2016/11/13 10:03:15.000  -42.425461841  173.533651662   314.8265   6   8   0.0301   0.0224   0.0579   0.0146   0.0193   0.0355   0.00    0.0
2016/11/13 10:03:16.000  -42.425461808  173.533651665   314.8377   6   8   0.0300   0.0225   0.0579   0.0147   0.0192   0.0355   0.00    0.0
2016/11/13 10:03:17.000  -42.425461833  173.533651660   314.8293   6   8   0.0302   0.0225   0.0581   0.0147   0.0194   0.0357   0.00    0.0
2016/11/13 10:03:18.000  -42.425461892  173.533651623   314.8172   6   8   0.0302   0.0226   0.0581   0.0149   0.0193   0.0357   0.00    0.0
2016/11/13 10:03:19.000  -42.425461812  173.533651678   314.8313   6   8   0.0301   0.0224   0.0579   0.0148   0.0193   0.0356   0.00    0.0
2016/11/13 10:03:20.000  -42.425461852  173.533651680   314.8273   6   8   0.0301   0.0224   0.0578   0.0147   0.0193   0.0355   0.00    0.0
2016/11/13 10:03:21.000  -42.425461839  173.533651675   314.8271   6   8   0.0301   0.0225   0.0579   0.0147   0.0192   0.0356   0.00    0.0
2016/11/13 10:03:22.000  -42.425461860  173.533651657   314.8236   6   8   0.0302   0.0226   0.0580   0.0148   0.0193   0.0357   0.00    0.0
2016/11/13 10:03:23.000  -42.425461818  173.533651684   314.8341   6   8   0.0302   0.0225   0.0581   0.0149   0.0193   0.0357   0.00    0.0
2016/11/13 10:03:24.000  -42.425461853  173.533651696   314.8237   6   8   0.0301   0.0226   0.0578   0.0148   0.0191   0.0356   0.00    0.0
2016/11/13 10:03:25.000  -42.425461829  173.533651673   314.8251   6   8   0.0301   0.0224   0.0577   0.0146   0.0192   0.0355   0.00    0.0
2016/11/13 10:03:26.000  -42.425461818  173.533651657   314.8229   6   8   0.0301   0.0226   0.0578   0.0147   0.0192   0.0355   0.00    0.0
2016/11/13 10:03:27.000  -42.425461901  173.533651645   314.8116   6   8   0.0302   0.0225   0.0580   0.0148   0.0193   0.0356   0.00    0.0
2016/11/13 10:03:28.000  -42.425461890  173.533651649   314.8130   6   8   0.0302   0.0225   0.0580   0.0149   0.0194   0.0357   0.00    0.0
2016/11/13 10:03:29.000  -42.425461903  173.533651636   314.8163   6   8   0.0301   0.0225   0.0578   0.0148   0.0192   0.0355   0.00    0.0
2016/11/13 10:03:30.000  -42.425461867  173.533651681   314.8200   6   8   0.0300   0.0224   0.0577   0.0148   0.0192   0.0355   0.00    0.0
2016/11/13 10:03:31.000  -42.425461861  173.533651676   314.8192   6   8   0.0301   0.0225   0.0577   0.0147   0.0192   0.0355   0.00    0.0
2016/11/13 10:03:32.000  -42.425461853  173.533651669   314.8200   6   8   0.0301   0.0225   0.0579   0.0149   0.0193   0.0356   0.00    0.0
2016/11/13 10:03:33.000  -42.425461823  173.533651685   314.8295   6   8   0.0302   0.0226   0.0580   0.0149   0.0193   0.0357   0.00    0.0
2016/11/13 10:03:34.000  -42.425461820  173.533651666   314.8268   6   8   0.0301   0.0225   0.0577   0.0147   0.0192   0.0355   0.00    0.0
2016/11/13 10:03:35.000  -42.425461836  173.533651689   314.8226   6   8   0.0301   0.0224   0.0576   0.0146   0.0192   0.0355   0.00    0.0
2016/11/13 10:03:36.000  -42.425461830  173.533651663   314.8256   6   8   0.0301   0.0225   0.0577   0.0148   0.0192   0.0355   0.00    0.0
2016/11/13 10:03:37.000  -42.425461873  173.533651616   314.8227   6   8   0.0302   0.0225   0.0578   0.0149   0.0193   0.0356   0.00    0.0
2016/11/13 10:03:38.000  -42.425461857  173.533651649   314.8234   6   8   0.0303   0.0225   0.0579   0.0149   0.0193   0.0357   0.00    0.0
2016/11/13 10:03:39.000  -42.425461867  173.533651663   314.8185   6   8   0.0301   0.0225   0.0576   0.0148   0.0194   0.0355   0.00    0.0
2016/11/13 10:03:40.000  -42.425461835  173.533651664   314.8195   6   8   0.0301   0.0225   0.0575   0.0148   0.0192   0.0354   0.00    0.0
2016/11/13 10:03:41.000  -42.425461855  173.533651651   314.8160   6   8   0.0301   0.0224   0.0576   0.0149   0.0192   0.0355   0.00    0.0
2016/11/13 10:03:42.000  -42.425461831  173.533651671   314.8230   6   8   0.0303   0.0226   0.0578   0.0149   0.0193   0.0356   0.00    0.0
2016/11/13 10:03:43.000  -42.425461814  173.533651697   314.8245   6   8   0.0303   0.0225   0.0578   0.0148   0.0194   0.0356   0.00    0.0
2016/11/13 10:03:44.000  -42.425461846  173.533651689   314.8235   6   8   0.0301   0.0224   0.0576   0.0149   0.0192   0.0355   0.00    0.0
2016/11/13 10:03:45.000  -42.425461773  173.533651741   314.8408   6   9   0.0260   0.0213   0.0483   0.0107   0.0126   0.0280   0.00    0.0
2016/11/13 10:03:46.000  -42.425461776  173.533651696   314.8384   6   9   0.0260   0.0215   0.0483   0.0106   0.0125   0.0280   0.00    0.0
2016/11/13 10:03:47.000  -42.425461791  173.533651704   314.8267   6   9   0.0261   0.0214   0.0484   0.0108   0.0123   0.0281   0.00    0.0
2016/11/13 10:03:48.000  -42.425461768  173.533651719   314.8344   6   9   0.0261   0.0214   0.0484   0.0107   0.0124   0.0281   0.00    0.0
2016/11/13 10:03:49.000  -42.425461773  173.533651718   314.8355   6   9   0.0260   0.0213   0.0482   0.0108   0.0124   0.0280   0.00    0.0
2016/11/13 10:03:50.000  -42.425461740  173.533651729   314.8429   6   9   0.0260   0.0213   0.0481   0.0108   0.0124   0.0280   0.00    0.0
2016/11/13 10:03:51.000  -42.425461745  173.533651737   314.8410   6   9   0.0261   0.0214   0.0482   0.0106   0.0127   0.0280   0.00    0.0
2016/11/13 10:03:52.000  -42.425461707  173.533651748   314.8496   6   9   0.0261   0.0214   0.0483   0.0108   0.0123   0.0280   0.00    0.0
2016/11/13 10:03:53.000  -42.425461700  173.533651738   314.8486   6   9   0.0261   0.0213   0.0483   0.0106   0.0125   0.0281   0.00    0.0
2016/11/13 10:03:54.000  -42.425461717  173.533651720   314.8470   6   9   0.0260   0.0214   0.0482   0.0107   0.0125   0.0280   0.00    0.0
2016/11/13 10:03:55.000  -42.425461727  173.533651729   314.8488   6   9   0.0259   0.0214   0.0481   0.0107   0.0123   0.0279   0.00    0.0
2016/11/13 10:03:56.000  -42.425461733  173.533651703   314.8461   6   9   0.0260   0.0213   0.0481   0.0106   0.0124   0.0279   0.00    0.0
2016/11/13 10:03:57.000  -42.425461759  173.533651718   314.8439   6   9   0.0261   0.0214   0.0482   0.0107   0.0125   0.0280   0.00    0.0
2016/11/13 10:03:58.000  -42.425461797  173.533651673   314.8347   6   9   0.0260   0.0213   0.0482   0.0106   0.0124   0.0280   0.00    0.0
2016/11/13 10:03:59.000  -42.425461768  173.533651694   314.8395   6   9   0.0260   0.0213   0.0480   0.0107   0.0123   0.0279   0.00    0.0
2016/11/13 10:04:00.000  -42.425461747  173.533651698   314.8360   6   9   0.0260   0.0213   0.0480   0.0109   0.0125   0.0279   0.00    0.0
2016/11/13 10:04:01.000  -42.425461802  173.533651689   314.8256   6   9   0.0260   0.0213   0.0480   0.0106   0.0124   0.0279   0.00    0.0
2016/11/13 10:04:02.000  -42.425461833  173.533651709   314.8210   6   9   0.0261   0.0214   0.0482   0.0107   0.0123   0.0281   0.00    0.0
2016/11/13 10:04:03.000  -42.425461806  173.533651699   314.8326   6   9   0.0261   0.0214   0.0482   0.0107   0.0122   0.0280   0.00    0.0
2016/11/13 10:04:04.000  -42.425461810  173.533651689   314.8305   6   9   0.0260   0.0213   0.0479   0.0106   0.0125   0.0280   0.00    0.0
2016/11/13 10:04:05.000  -42.425461803  173.533651674   314.8307   6   9   0.0259   0.0213   0.0479   0.0107   0.0122   0.0279   0.00    0.0
2016/11/13 10:04:06.000  -42.425461798  173.533651693   314.8356   6   9   0.0260   0.0213   0.0479   0.0106   0.0124   0.0278   0.00    0.0
2016/11/13 10:04:07.000  -42.425461781  173.533651680   314.8310   6   9   0.0260   0.0213   0.0480   0.0107   0.0124   0.0279   0.00    0.0
2016/11/13 10:04:08.000  -42.425461766  173.533651675   314.8347   6   9   0.0260   0.0213   0.0480   0.0108   0.0124   0.0279   0.00    0.0
2016/11/13 10:04:09.000  -42.425461774  173.533651663   314.8232   6   9   0.0260   0.0212   0.0478   0.0107   0.0123   0.0279   0.00    0.0
2016/11/13 10:04:10.000  -42.425461770  173.533651661   314.8236   6   9   0.0260   0.0213   0.0478   0.0105   0.0123   0.0278   0.00    0.0
2016/11/13 10:04:11.000  -42.425461775  173.533651672   314.8271   6   9   0.0260   0.0212   0.0478   0.0107   0.0122   0.0278   0.00    0.0
2016/11/13 10:04:12.000  -42.425461777  173.533651692   314.8268   6   9   0.0260   0.0213   0.0479   0.0107   0.0123   0.0278   0.00    0.0
2016/11/13 10:04:13.000  -42.425461780  173.533651690   314.8274   6   9   0.0261   0.0213   0.0478   0.0107   0.0125   0.0279   0.00    0.0
2016/11/13 10:04:14.000  -42.425461785  173.533651720   314.8283   6   9   0.0260   0.0213   0.0477   0.0107   0.0124   0.0277   0.00    0.0
2016/11/13 10:04:15.000  -42.425461796  173.533651728   314.8302   6   9   0.0259   0.0213   0.0477   0.0105   0.0124   0.0277   0.00    0.0
2016/11/13 10:04:16.000  -42.425461778  173.533651712   314.8352   6   9   0.0259   0.0213   0.0477   0.0105   0.0122   0.0278   0.00    0.0
2016/11/13 10:04:17.000  -42.425461725  173.533651707   314.8405   6   9   0.0261   0.0213   0.0478   0.0105   0.0124   0.0279   0.00    0.0
2016/11/13 10:04:18.000  -42.425461777  173.533651691   314.8332   6   9   0.0260   0.0213   0.0478   0.0105   0.0123   0.0279   0.00    0.0
2016/11/13 10:04:19.000  -42.425461793  173.533651691   314.8316   6   9   0.0260   0.0212   0.0477   0.0106   0.0123   0.0278   0.00    0.0
2016/11/13 10:04:20.000  -42.425461764  173.533651712   314.8326   6   9   0.0259   0.0213   0.0476   0.0106   0.0124   0.0277   0.00    0.0
2016/11/13 10:04:21.000  -42.425461737  173.533651729   314.8384   6   9   0.0259   0.0213   0.0476   0.0105   0.0123   0.0277   0.00    0.0
2016/11/13 10:04:22.000  -42.425461739  173.533651708   314.8423   6   9   0.0260   0.0212   0.0477   0.0106   0.0124   0.0278   0.00    0.0
2016/11/13 10:04:23.000  -42.425461747  173.533651693   314.8358   6   9   0.0261   0.0212   0.0477   0.0105   0.0124   0.0278   0.00    0.0
2016/11/13 10:04:24.000  -42.425461768  173.533651715   314.8364   6   9   0.0259   0.0213   0.0475   0.0107   0.0122   0.0277   0.00    0.0
2016/11/13 10:04:25.000  -42.425461762  173.533651686   314.8352   6   9   0.0260   0.0213   0.0475   0.0106   0.0122   0.0277   0.00    0.0
2016/11/13 10:04:26.000  -42.425461785  173.533651686   314.8288   6   9   0.0259   0.0212   0.0475   0.0107   0.0125   0.0277   0.00    0.0
2016/11/13 10:04:27.000  -42.425461747  173.533651703   314.8386   6   9   0.0259   0.0213   0.0476   0.0108   0.0122   0.0277   0.00    0.0
2016/11/13 10:04:28.000  -42.425461718  173.533651731   314.8377   6   9   0.0259   0.0213   0.0476   0.0107   0.0123   0.0277   0.00    0.0
2016/11/13 10:04:29.000  -42.425461721  173.533651717   314.8385   6   9   0.0259   0.0213   0.0474   0.0105   0.0124   0.0277   0.00    0.0
2016/11/13 10:04:30.000  -42.425461748  173.533651721   314.8345   6   9   0.0258   0.0213   0.0474   0.0106   0.0123   0.0276   0.00    0.0
2016/11/13 10:04:31.000  -42.425461798  173.533651734   314.8264   6   9   0.0259   0.0212   0.0473   0.0107   0.0123   0.0276   0.00    0.0
2016/11/13 10:04:32.000  -42.425461755  173.533651742   314.8324   6   9   0.0260   0.0212   0.0474   0.0106   0.0124   0.0277   0.00    0.0
2016/11/13 10:04:33.000  -42.425461751  173.533651734   314.8368   6   9   0.0260   0.0214   0.0474   0.0106   0.0124   0.0277   0.00    0.0
2016/11/13 10:04:34.000  -42.425461769  173.533651748   314.8344   6   9   0.0259   0.0212   0.0473   0.0105   0.0124   0.0276   0.00    0.0
2016/11/13 10:04:35.000  -42.425461790  173.533651689   314.8289   6   9   0.0259   0.0213   0.0472   0.0109   0.0122   0.0276   0.00    0.0
2016/11/13 10:04:36.000  -42.425461775  173.533651703   314.8305   6   9   0.0259   0.0211   0.0472   0.0105   0.0122   0.0276   0.00    0.0
2016/11/13 10:04:37.000  -42.425461749  173.533651696   314.8368   6   9   0.0259   0.0212   0.0473   0.0106   0.0123   0.0277   0.00    0.0
2016/11/13 10:04:38.000  -42.425461774  173.533651698   314.8318   6   9   0.0260   0.0211   0.0474   0.0107   0.0123   0.0276   0.00    0.0
2016/11/13 10:04:39.000  -42.425461752  173.533651722   314.8392   6   9   0.0258   0.0212   0.0472   0.0107   0.0122   0.0275   0.00    0.0
2016/11/13 10:04:40.000  -42.425461799  173.533651714   314.8296   6   9   0.0259   0.0211   0.0471   0.0105   0.0122   0.0276   0.00    0.0
2016/11/13 10:04:41.000  -42.425461809  173.533651707   314.8341   6   9   0.0258   0.0211   0.0471   0.0105   0.0122   0.0275   0.00    0.0
2016/11/13 10:04:42.000  -42.425461788  173.533651710   314.8375   6   9   0.0259   0.0213   0.0473   0.0107   0.0122   0.0277   0.00    0.0
2016/11/13 10:04:43.000  -42.425461782  173.533651723   314.8394   6   9   0.0260   0.0212   0.0472   0.0106   0.0123   0.0276   0.00    0.0
2016/11/13 10:04:44.000  -42.425461745  173.533651706   314.8402   6   9   0.0259   0.0212   0.0471   0.0105   0.0122   0.0275   0.00    0.0
2016/11/13 10:04:45.000  -42.425461786  173.533651719   314.8318   6   9   0.0258   0.0211   0.0470   0.0108   0.0121   0.0275   0.00    0.0
2016/11/13 10:04:46.000  -42.425461786  173.533651724   314.8264   6   9   0.0258   0.0211   0.0470   0.0105   0.0122   0.0275   0.00    0.0
2016/11/13 10:04:47.000  -42.425461797  173.533651676   314.8272   6   9   0.0259   0.0212   0.0471   0.0107   0.0122   0.0276   0.00    0.0
2016/11/13 10:04:48.000  -42.425461788  173.533651708   314.8299   6   9   0.0259   0.0212   0.0471   0.0107   0.0123   0.0275   0.00    0.0
2016/11/13 10:04:49.000  -42.425461756  173.533651705   314.8383   6   9   0.0258   0.0213   0.0470   0.0104   0.0123   0.0274   0.00    0.0
2016/11/13 10:04:50.000  -42.425461773  173.533651678   314.8360   6   9   0.0258   0.0212   0.0469   0.0107   0.0122   0.0274   0.00    0.0
2016/11/13 10:04:51.000  -42.425461824  173.533651680   314.8242   6   9   0.0259   0.0211   0.0469   0.0106   0.0122   0.0274   0.00    0.0
2016/11/13 10:04:52.000  -42.425461832  173.533651692   314.8221   6   9   0.0259   0.0211   0.0470   0.0108   0.0123   0.0274   0.00    0.0
2016/11/13 10:04:53.000  -42.425461814  173.533651717   314.8216   6   9   0.0259   0.0211   0.0469   0.0107   0.0121   0.0275   0.00    0.0
2016/11/13 10:04:54.000  -42.425461797  173.533651707   314.8252   6   9   0.0259   0.0212   0.0469   0.0107   0.0120   0.0274   0.00    0.0
2016/11/13 10:04:55.000  -42.425461808  173.533651691   314.8275   6   9   0.0258   0.0211   0.0468   0.0105   0.0123   0.0274   0.00    0.0
2016/11/13 10:04:56.000  -42.425461834  173.533651687   314.8163   6   9   0.0258   0.0212   0.0468   0.0105   0.0123   0.0273   0.00    0.0
2016/11/13 10:04:57.000  -42.425461820  173.533651701   314.8211   6   9   0.0259   0.0212   0.0468   0.0105   0.0120   0.0274   0.00    0.0
2016/11/13 10:04:58.000  -42.425461851  173.533651644   314.8138   6   9   0.0299   0.0230   0.0529   0.0114   0.0130   0.0315   0.00    0.0
2016/11/13 10:04:59.000  -42.425461858  173.533651616   314.8084   6   9   0.0294   0.0228   0.0521   0.0114   0.0128   0.0310   0.00    0.0
2016/11/13 10:05:00.000  -42.425461866  173.533651658   314.8135   6   9   0.0289   0.0226   0.0514   0.0114   0.0128   0.0305   0.00    0.0
2016/11/13 10:05:01.000  -42.425461811  173.533651660   314.8204   6   9   0.0293   0.0227   0.0520   0.0114   0.0129   0.0309   0.00    0.0
2016/11/13 10:05:02.000  -42.425461865  173.533651612   314.8101   6   9   0.0298   0.0230   0.0526   0.0113   0.0129   0.0313   0.00    0.0
2016/11/13 10:05:03.000  -42.425461832  173.533651689   314.8215   6   9   0.0258   0.0211   0.0467   0.0106   0.0122   0.0274   0.00    0.0
2016/11/13 10:05:04.000  -42.425461820  173.533651707   314.8273   6   9   0.0258   0.0211   0.0466   0.0105   0.0122   0.0273   0.00    0.0
2016/11/13 10:05:05.000  -42.425461829  173.533651695   314.8231   6   9   0.0258   0.0211   0.0465   0.0106   0.0121   0.0273   0.00    0.0
2016/11/13 10:05:06.000  -42.425461818  173.533651692   314.8188   6   9   0.0257   0.0210   0.0466   0.0106   0.0122   0.0272   0.00    0.0
2016/11/13 10:05:07.000  -42.425461786  173.533651735   314.8208   6   9   0.0258   0.0211   0.0466   0.0106   0.0122   0.0273   0.00    0.0
2016/11/13 10:05:08.000  -42.425461817  173.533651721   314.8183   6   9   0.0258   0.0211   0.0466   0.0105   0.0122   0.0274   0.00    0.0
2016/11/13 10:05:09.000  -42.425461767  173.533651732   314.8252   6   9   0.0259   0.0211   0.0464   0.0105   0.0121   0.0273   0.00    0.0
2016/11/13 10:05:10.000  -42.425461798  173.533651745   314.8237   6   9   0.0257   0.0213   0.0464   0.0106   0.0119   0.0272   0.00    0.0
2016/11/13 10:05:11.000  -42.425461826  173.533651722   314.8198   6   9   0.0257   0.0211   0.0464   0.0106   0.0121   0.0272   0.00    0.0
2016/11/13 10:05:12.000  -42.425461812  173.533651725   314.8226   6   9   0.0258   0.0212   0.0465   0.0106   0.0120   0.0273   0.00    0.0
2016/11/13 10:05:13.000  -42.425461865  173.533651697   314.8162   6   9   0.0258   0.0212   0.0465   0.0106   0.0121   0.0273   0.00    0.0
2016/11/13 10:05:14.000  -42.425461813  173.533651711   314.8193   6   9   0.0257   0.0212   0.0463   0.0105   0.0121   0.0272   0.00    0.0
2016/11/13 10:05:15.000  -42.425461783  173.533651738   314.8273   6   9   0.0257   0.0211   0.0463   0.0104   0.0120   0.0271   0.00    0.0
2016/11/13 10:05:16.000  -42.425461818  173.533651718   314.8159   6   9   0.0257   0.0212   0.0463   0.0103   0.0121   0.0271   0.00    0.0
2016/11/13 10:05:17.000  -42.425461790  173.533651712   314.8193   6   9   0.0258   0.0211   0.0464   0.0105   0.0121   0.0272   0.00    0.0
2016/11/13 10:05:18.000  -42.425461797  173.533651713   314.8259   6   9   0.0257   0.0212   0.0464   0.0105   0.0120   0.0272   0.00    0.0
2016/11/13 10:05:19.000  -42.425461805  173.533651735   314.8195   6   9   0.0257   0.0210   0.0462   0.0106   0.0121   0.0271   0.00    0.0
2016/11/13 10:05:20.000  -42.425461816  173.533651721   314.8157   6   9   0.0257   0.0211   0.0462   0.0104   0.0120   0.0270   0.00    0.0
2016/11/13 10:05:21.000  -42.425461813  173.533651735   314.8157   6   9   0.0256   0.0210   0.0462   0.0104   0.0120   0.0270   0.00    0.0
2016/11/13 10:05:22.000  -42.425461796  173.533651722   314.8205   6   9   0.0258   0.0211   0.0462   0.0106   0.0122   0.0271   0.00    0.0
2016/11/13 10:05:23.000  -42.425461791  173.533651725   314.8247   6   9   0.0257   0.0212   0.0462   0.0104   0.0122   0.0272   0.00    0.0
2016/11/13 10:05:24.000  -42.425461805  173.533651730   314.8235   6   9   0.0257   0.0210   0.0461   0.0106   0.0120   0.0270   0.00    0.0
2016/11/13 10:05:25.000  -42.425461799  173.533651708   314.8214   6   9   0.0256   0.0211   0.0460   0.0106   0.0118   0.0270   0.00    0.0
2016/11/13 10:05:26.000  -42.425461802  173.533651699   314.8202   6   9   0.0256   0.0210   0.0460   0.0107   0.0119   0.0270   0.00    0.0
2016/11/13 10:05:27.000  -42.425461808  173.533651686   314.8196   6   9   0.0257   0.0210   0.0461   0.0105   0.0119   0.0270   0.00    0.0
2016/11/13 10:05:28.000  -42.425461820  173.533651694   314.8145   6   9   0.0257   0.0212   0.0461   0.0106   0.0120   0.0271   0.00    0.0
2016/11/13 10:05:29.000  -42.425461848  173.533651666   314.8089   6   9   0.0257   0.0211   0.0459   0.0104   0.0119   0.0270   0.00    0.0
2016/11/13 10:05:30.000  -42.425461805  173.533651679   314.8206   6   9   0.0256   0.0211   0.0459   0.0104   0.0119   0.0270   0.00    0.0
2016/11/13 10:05:31.000  -42.425461808  173.533651693   314.8231   6   9   0.0256   0.0211   0.0460   0.0104   0.0121   0.0270   0.00    0.0
2016/11/13 10:05:32.000  -42.425461804  173.533651714   314.8267   6   9   0.0257   0.0211   0.0460   0.0104   0.0119   0.0270   0.00    0.0
2016/11/13 10:05:33.000  -42.425461835  173.533651714   314.8156   6   9   0.0257   0.0210   0.0459   0.0106   0.0119   0.0270   0.00    0.0
2016/11/13 10:05:34.000  -42.425461825  173.533651702   314.8129   6   9   0.0257   0.0211   0.0458   0.0103   0.0119   0.0269   0.00    0.0
2016/11/13 10:05:35.000  -42.425461839  173.533651694   314.8167   6   9   0.0257   0.0211   0.0457   0.0105   0.0118   0.0269   0.00    0.0
2016/11/13 10:05:36.000  -42.425461804  173.533651702   314.8162   6   9   0.0256   0.0211   0.0458   0.0105   0.0119   0.0269   0.00    0.0
2016/11/13 10:05:37.000  -42.425461806  173.533651698   314.8179   6   9   0.0257   0.0211   0.0458   0.0105   0.0119   0.0269   0.00    0.0
2016/11/13 10:05:38.000  -42.425461808  173.533651717   314.8115   6   9   0.0257   0.0211   0.0458   0.0105   0.0119   0.0269   0.00    0.0
2016/11/13 10:05:39.000  -42.425461811  173.533651738   314.8202   6   9   0.0256   0.0211   0.0457   0.0103   0.0119   0.0268   0.00    0.0
2016/11/13 10:05:40.000  -42.425461764  173.533651731   314.8280   6   9   0.0255   0.0210   0.0456   0.0106   0.0118   0.0268   0.00    0.0
2016/11/13 10:05:41.000  -42.425461788  173.533651731   314.8257   6   9   0.0256   0.0210   0.0456   0.0104   0.0120   0.0269   0.00    0.0
2016/11/13 10:05:42.000  -42.425461764  173.533651744   314.8268   6   9   0.0256   0.0210   0.0457   0.0103   0.0120   0.0269   0.00    0.0
2016/11/13 10:05:43.000  -42.425461803  173.533651723   314.8240   6   9   0.0256   0.0210   0.0457   0.0105   0.0118   0.0269   0.00    0.0
2016/11/13 10:05:44.000  -42.425461788  173.533651705   314.8198   6   9   0.0256   0.0211   0.0456   0.0104   0.0118   0.0268   0.00    0.0
2016/11/13 10:05:45.000  -42.425461772  173.533651718   314.8185   6   9   0.0255   0.0210   0.0455   0.0105   0.0119   0.0267   0.00    0.0
2016/11/13 10:05:46.000  -42.425461781  173.533651694   314.8193   6   9   0.0256   0.0210   0.0455   0.0104   0.0118   0.0268   0.00    0.0
2016/11/13 10:05:47.000  -42.425461799  173.533651675   314.8162   6   9   0.0257   0.0212   0.0455   0.0103   0.0119   0.0268   0.00    0.0
2016/11/13 10:05:48.000  -42.425461801  173.533651698   314.8167   6   9   0.0257   0.0211   0.0455   0.0105   0.0119   0.0268   0.00    0.0
2016/11/13 10:05:49.000  -42.425461825  173.533651682   314.8137   6   9   0.0255   0.0211   0.0454   0.0106   0.0116   0.0267   0.00    0.0
2016/11/13 10:05:50.000  -42.425461830  173.533651689   314.8073   6   9   0.0255   0.0211   0.0454   0.0106   0.0117   0.0267   0.00    0.0
2016/11/13 10:05:51.000  -42.425461835  173.533651698   314.8052   6   9   0.0255   0.0212   0.0453   0.0104   0.0117   0.0267   0.00    0.0
2016/11/13 10:05:52.000  -42.425461820  173.533651694   314.8142   6   9   0.0257   0.0210   0.0454   0.0103   0.0119   0.0268   0.00    0.0
2016/11/13 10:05:53.000  -42.425461865  173.533651687   314.8088   6   9   0.0256   0.0211   0.0454   0.0105   0.0117   0.0267   0.00    0.0
2016/11/13 10:05:54.000  -42.425461850  173.533651672   314.8135   6   9   0.0255   0.0210   0.0453   0.0104   0.0116   0.0267   0.00    0.0
2016/11/13 10:05:55.000  -42.425461823  173.533651675   314.8201   6   9   0.0255   0.0210   0.0452   0.0105   0.0118   0.0266   0.00    0.0
2016/11/13 10:05:56.000  -42.425461811  173.533651661   314.8226   6   9   0.0255   0.0209   0.0452   0.0104   0.0118   0.0266   0.00    0.0
2016/11/13 10:05:57.000  -42.425461867  173.533651662   314.8181   6   9   0.0256   0.0210   0.0453   0.0104   0.0118   0.0267   0.00    0.0
2016/11/13 10:05:58.000  -42.425461862  173.533651689   314.8132   6   9   0.0256   0.0209   0.0453   0.0103   0.0119   0.0266   0.00    0.0
2016/11/13 10:05:59.000  -42.425461832  173.533651676   314.8155   6   9   0.0255   0.0210   0.0451   0.0104   0.0117   0.0266   0.00    0.0
2016/11/13 10:06:00.000  -42.425461825  173.533651698   314.8123   6   9   0.0255   0.0210   0.0451   0.0104   0.0116   0.0266   0.00    0.0
2016/11/13 10:06:01.000  -42.425461830  173.533651681   314.8076   6   9   0.0255   0.0209   0.0451   0.0103   0.0118   0.0265   0.00    0.0
2016/11/13 10:06:02.000  -42.425461836  173.533651655   314.8043   6   9   0.0255   0.0210   0.0451   0.0104   0.0118   0.0266   0.00    0.0
2016/11/13 10:06:03.000  -42.425461858  173.533651658   314.8080   6   9   0.0256   0.0211   0.0451   0.0105   0.0116   0.0267   0.00    0.0
2016/11/13 10:06:04.000  -42.425461809  173.533651677   314.8135   6   9   0.0255   0.0210   0.0450   0.0104   0.0117   0.0265   0.00    0.0
2016/11/13 10:06:05.000  -42.425461821  173.533651679   314.8112   6   9   0.0254   0.0210   0.0449   0.0105   0.0118   0.0265   0.00    0.0
2016/11/13 10:06:06.000  -42.425461814  173.533651669   314.8150   6   9   0.0255   0.0209   0.0449   0.0104   0.0118   0.0265   0.00    0.0
2016/11/13 10:06:07.000  -42.425461816  173.533651690   314.8120   6   9   0.0255   0.0209   0.0450   0.0104   0.0118   0.0265   0.00    0.0
2016/11/13 10:06:08.000  -42.425461828  173.533651724   314.8154   6   9   0.0255   0.0210   0.0450   0.0105   0.0116   0.0266   0.00    0.0
2016/11/13 10:06:09.000  -42.425461804  173.533651705   314.8165   6   9   0.0255   0.0210   0.0448   0.0104   0.0117   0.0265   0.00    0.0
2016/11/13 10:06:10.000  -42.425461822  173.533651727   314.8141   6   9   0.0254   0.0210   0.0448   0.0105   0.0117   0.0263   0.00    0.0
2016/11/13 10:06:11.000  -42.425461795  173.533651722   314.8170   6   9   0.0255   0.0209   0.0448   0.0104   0.0118   0.0264   0.00    0.0
2016/11/13 10:06:12.000  -42.425461840  173.533651674   314.8097   6   9   0.0255   0.0210   0.0448   0.0102   0.0116   0.0264   0.00    0.0
2016/11/13 10:06:13.000  -42.425461814  173.533651685   314.8158   6   9   0.0255   0.0210   0.0449   0.0105   0.0114   0.0265   0.00    0.0
2016/11/13 10:06:14.000  -42.425461806  173.533651705   314.8109   6   9   0.0254   0.0208   0.0447   0.0103   0.0117   0.0264   0.00    0.0
2016/11/13 10:06:15.000  -42.425461850  173.533651670   314.8088   6   9   0.0254   0.0209   0.0447   0.0103   0.0115   0.0264   0.00    0.0
2016/11/13 10:06:16.000  -42.425461841  173.533651681   314.8050   6   9   0.0254   0.0209   0.0447   0.0103   0.0116   0.0263   0.00    0.0
2016/11/13 10:06:17.000  -42.425461867  173.533651700   314.8102   6   9   0.0254   0.0209   0.0447   0.0104   0.0116   0.0263   0.00    0.0
2016/11/13 10:06:18.000  -42.425461828  173.533651704   314.8208   6   9   0.0255   0.0211   0.0447   0.0104   0.0116   0.0264   0.00    0.0
2016/11/13 10:06:19.000  -42.425461843  173.533651685   314.8150   6   9   0.0253   0.0209   0.0446   0.0104   0.0116   0.0263   0.00    0.0
2016/11/13 10:06:20.000  -42.425461850  173.533651686   314.8041   6   9   0.0254   0.0210   0.0445   0.0102   0.0116   0.0263   0.00    0.0
2016/11/13 10:06:21.000  -42.425461870  173.533651684   314.8101   6   9   0.0254   0.0209   0.0445   0.0104   0.0116   0.0262   0.00    0.0
2016/11/13 10:06:22.000  -42.425461839  173.533651689   314.8128   6   9   0.0255   0.0211   0.0446   0.0103   0.0115   0.0263   0.00    0.0
2016/11/13 10:06:23.000  -42.425461854  173.533651703   314.8144   6   9   0.0255   0.0210   0.0445   0.0102   0.0117   0.0263   0.00    0.0
2016/11/13 10:06:24.000  -42.425461802  173.533651706   314.8227   6   9   0.0253   0.0209   0.0445   0.0103   0.0116   0.0263   0.00    0.0
2016/11/13 10:06:25.000  -42.425461828  173.533651719   314.8095   6   9   0.0253   0.0210   0.0444   0.0101   0.0116   0.0262   0.00    0.0
2016/11/13 10:06:26.000  -42.425461795  173.533651721   314.8130   6   9   0.0253   0.0209   0.0444   0.0104   0.0116   0.0262   0.00    0.0
2016/11/13 10:06:27.000  -42.425461840  173.533651729   314.8137   6   9   0.0254   0.0210   0.0444   0.0106   0.0115   0.0262   0.00    0.0
2016/11/13 10:06:28.000  -42.425461847  173.533651731   314.8156   6   9   0.0254   0.0209   0.0444   0.0105   0.0115   0.0262   0.00    0.0
2016/11/13 10:06:29.000  -42.425461828  173.533651715   314.8156   6   9   0.0253   0.0209   0.0443   0.0102   0.0116   0.0262   0.00    0.0
2016/11/13 10:06:30.000  -42.425461850  173.533651720   314.8160   6   9   0.0253   0.0209   0.0442   0.0103   0.0115   0.0261   0.00    0.0
2016/11/13 10:06:31.000  -42.425461874  173.533651722   314.8086   6   9   0.0253   0.0208   0.0442   0.0103   0.0116   0.0261   0.00    0.0
2016/11/13 10:06:32.000  -42.425461862  173.533651712   314.8113   6   9   0.0254   0.0210   0.0443   0.0105   0.0115   0.0262   0.00    0.0
2016/11/13 10:06:33.000  -42.425461827  173.533651748   314.8182   6   9   0.0254   0.0209   0.0443   0.0104   0.0116   0.0262   0.00    0.0
2016/11/13 10:06:34.000  -42.425461843  173.533651741   314.8148   6   9   0.0253   0.0209   0.0442   0.0103   0.0116   0.0260   0.00    0.0
2016/11/13 10:06:35.000  -42.425461855  173.533651727   314.8121   6   9   0.0252   0.0208   0.0441   0.0103   0.0114   0.0260   0.00    0.0
2016/11/13 10:06:36.000  -42.425461861  173.533651710   314.8118   6   9   0.0253   0.0209   0.0441   0.0103   0.0115   0.0261   0.00    0.0
2016/11/13 10:06:37.000  -42.425461875  173.533651731   314.8144   6   9   0.0253   0.0209   0.0442   0.0103   0.0115   0.0261   0.00    0.0
2016/11/13 10:06:38.000  -42.425461907  173.533651685   314.8022   6   9   0.0253   0.0210   0.0442   0.0101   0.0115   0.0261   0.00    0.0
2016/11/13 10:06:39.000  -42.425461898  173.533651697   314.8062   6   9   0.0253   0.0209   0.0440   0.0102   0.0116   0.0260   0.00    0.0
2016/11/13 10:06:40.000  -42.425461893  173.533651693   314.8085   6   9   0.0252   0.0208   0.0439   0.0101   0.0115   0.0260   0.00    0.0
2016/11/13 10:06:41.000  -42.425461882  173.533651677   314.8106   6   9   0.0253   0.0209   0.0440   0.0103   0.0113   0.0260   0.00    0.0
2016/11/13 10:06:42.000  -42.425461888  173.533651711   314.8104   6   9   0.0253   0.0210   0.0440   0.0105   0.0114   0.0260   0.00    0.0
2016/11/13 10:06:43.000  -42.425461871  173.533651698   314.8139   6   9   0.0253   0.0209   0.0441   0.0102   0.0114   0.0260   0.00    0.0
2016/11/13 10:06:44.000  -42.425461908  173.533651687   314.8039   6   9   0.0252   0.0208   0.0438   0.0103   0.0114   0.0259   0.00    0.0
2016/11/13 10:06:45.000  -42.425461936  173.533651681   314.8052   6   9   0.0252   0.0209   0.0438   0.0103   0.0115   0.0259   0.00    0.0
2016/11/13 10:06:46.000  -42.425461944  173.533651685   314.8030   6   9   0.0252   0.0208   0.0438   0.0105   0.0114   0.0259   0.00    0.0
2016/11/13 10:06:47.000  -42.425461912  173.533651714   314.8082   6   9   0.0252   0.0209   0.0439   0.0101   0.0114   0.0260   0.00    0.0
2016/11/13 10:06:48.000  -42.425461879  173.533651677   314.8106   6   9   0.0252   0.0209   0.0439   0.0104   0.0114   0.0259   0.00    0.0
2016/11/13 10:06:49.000  -42.425461852  173.533651708   314.8199   6   9   0.0252   0.0208   0.0438   0.0103   0.0114   0.0258   0.00    0.0
2016/11/13 10:06:50.000  -42.425461875  173.533651701   314.8165   6   9   0.0251   0.0209   0.0438   0.0102   0.0115   0.0258   0.00    0.0
2016/11/13 10:06:51.000  -42.425461874  173.533651723   314.8121   6   9   0.0252   0.0208   0.0437   0.0104   0.0113   0.0258   0.00    0.0
2016/11/13 10:06:52.000  -42.425461899  173.533651736   314.8098   6   9   0.0252   0.0208   0.0437   0.0104   0.0114   0.0259   0.00    0.0
2016/11/13 10:06:53.000  -42.425461897  173.533651699   314.8056   6   9   0.0252   0.0208   0.0438   0.0102   0.0115   0.0259   0.00    0.0
2016/11/13 10:06:54.000  -42.425461843  173.533651718   314.8155   6   9   0.0252   0.0208   0.0436   0.0101   0.0115   0.0259   0.00    0.0
2016/11/13 10:06:55.000  -42.425461839  173.533651725   314.8238   6   9   0.0251   0.0207   0.0436   0.0103   0.0114   0.0257   0.00    0.0
2016/11/13 10:06:56.000  -42.425461891  173.533651715   314.8174   6   9   0.0251   0.0208   0.0436   0.0102   0.0113   0.0257   0.00    0.0
2016/11/13 10:06:57.000  -42.425461873  173.533651726   314.8141   6   9   0.0252   0.0208   0.0437   0.0101   0.0113   0.0258   0.00    0.0
2016/11/13 10:06:58.000  -42.425461879  173.533651716   314.8171   6   9   0.0252   0.0209   0.0436   0.0102   0.0113   0.0258   0.00    0.0
