% program   : RTKPOST ver.2.4.3 b34
% inp file  : D:\Mestrado\GE\TP3\Kaik\kaik3180.16o
% inp file  : D:\Mestrado\GE\TP3\Kaik\brdc3180.16n
% inp file  : D:\Mestrado\GE\TP3\Kaik\COD19230.EPH
% inp file  : D:\Mestrado\GE\TP3\Kaik\COD19230.CLK_05S
% obs start : 2016/11/13 11:00:00.0 GPST (week1923  39600.0s)
% obs end   : 2016/11/13 11:15:00.0 GPST (week1923  40500.0s)
% pos mode  : PPP Kinematic
% solution  : Combined
% elev mask : 10.0 deg
% dynamics  : off
% tidecorr  : off
% tropo opt : Estimate ZTD
% ephemeris : Precise
% navi sys  : GPS
% antenna1  :                       ( 0.0000  0.0000  0.0000)
%
% (lat/lon/height=WGS84/ellipsoidal,Q=1:fix,2:float,3:sbas,4:dgps,5:single,6:ppp,ns=# of satellites)
%  GPST                  latitude(deg) longitude(deg)  height(m)   Q  ns   sdn(m)   sde(m)   sdu(m)  sdne(m)  sdeu(m)  sdun(m) age(s)  ratio
2016/11/13 11:00:00.000  -42.425461941  173.533652960   314.9881   6  10   0.0634   0.0740   0.1238  -0.0279   0.0259   0.0577   0.00    0.0
2016/11/13 11:00:01.000  -42.425461945  173.533652918   314.9878   6  10   0.0623   0.0739   0.1221  -0.0282   0.0236   0.0562   0.00    0.0
2016/11/13 11:00:02.000  -42.425461917  173.533652909   314.9871   6  10   0.0626   0.0740   0.1226  -0.0283   0.0236   0.0563   0.00    0.0
2016/11/13 11:00:03.000  -42.425461903  173.533652858   314.9935   6  10   0.0614   0.0734   0.1210  -0.0281   0.0244   0.0562   0.00    0.0
2016/11/13 11:00:04.000  -42.425461913  173.533652891   314.9989   6  10   0.0616   0.0735   0.1213  -0.0282   0.0244   0.0564   0.00    0.0
2016/11/13 11:00:05.000  -42.425461930  173.533652934   314.9966   6  10   0.0617   0.0735   0.1216  -0.0283   0.0243   0.0565   0.00    0.0
2016/11/13 11:00:06.000  -42.425461913  173.533652890   315.0046   6  10   0.0619   0.0736   0.1220  -0.0284   0.0243   0.0566   0.00    0.0
2016/11/13 11:00:07.000  -42.425461930  173.533652946   315.0050   6  10   0.0620   0.0736   0.1224  -0.0286   0.0244   0.0567   0.00    0.0
2016/11/13 11:00:08.000  -42.425461923  173.533652899   315.0128   6  10   0.0621   0.0736   0.1227  -0.0286   0.0243   0.0568   0.00    0.0
2016/11/13 11:00:09.000  -42.425461913  173.533652933   315.0143   6  10   0.0623   0.0737   0.1231  -0.0287   0.0244   0.0570   0.00    0.0
2016/11/13 11:00:10.000  -42.425461941  173.533652903   315.0061   6  10   0.0624   0.0738   0.1235  -0.0288   0.0245   0.0571   0.00    0.0
2016/11/13 11:00:11.000  -42.425461948  173.533652898   314.9994   6  10   0.0626   0.0738   0.1238  -0.0290   0.0244   0.0572   0.00    0.0
2016/11/13 11:00:12.000  -42.425461970  173.533652859   314.9997   6  10   0.0626   0.0739   0.1243  -0.0290   0.0244   0.0573   0.00    0.0
2016/11/13 11:00:13.000  -42.425461996  173.533652818   315.0056   6  10   0.0628   0.0739   0.1246  -0.0292   0.0245   0.0574   0.00    0.0
2016/11/13 11:00:14.000  -42.425461976  173.533652846   315.0028   6  10   0.0630   0.0740   0.1250  -0.0292   0.0244   0.0576   0.00    0.0
2016/11/13 11:00:15.000  -42.425461965  173.533652832   315.0000   6  10   0.0631   0.0740   0.1254  -0.0295   0.0246   0.0577   0.00    0.0
2016/11/13 11:00:16.000  -42.425461976  173.533652814   315.0148   6  10   0.0633   0.0741   0.1258  -0.0295   0.0246   0.0578   0.00    0.0
2016/11/13 11:00:17.000  -42.425462007  173.533652911   315.0043   6  10   0.0634   0.0741   0.1263  -0.0297   0.0246   0.0580   0.00    0.0
2016/11/13 11:00:18.000  -42.425461976  173.533652840   315.0119   6  10   0.0635   0.0742   0.1267  -0.0298   0.0246   0.0581   0.00    0.0
2016/11/13 11:00:19.000  -42.425462007  173.533652839   315.0149   6  10   0.0637   0.0742   0.1271  -0.0300   0.0247   0.0582   0.00    0.0
2016/11/13 11:00:20.000  -42.425461987  173.533652835   315.0256   6  10   0.0638   0.0742   0.1275  -0.0301   0.0248   0.0584   0.00    0.0
2016/11/13 11:00:21.000  -42.425462017  173.533652922   315.0241   6  10   0.0639   0.0743   0.1279  -0.0301   0.0247   0.0585   0.00    0.0
2016/11/13 11:00:22.000  -42.425461992  173.533652838   315.0290   6  10   0.0642   0.0744   0.1283  -0.0302   0.0249   0.0586   0.00    0.0
2016/11/13 11:00:23.000  -42.425461996  173.533652888   315.0199   6  10   0.0643   0.0744   0.1287  -0.0303   0.0249   0.0588   0.00    0.0
2016/11/13 11:00:24.000  -42.425462003  173.533652878   315.0199   6  10   0.0644   0.0744   0.1291  -0.0305   0.0250   0.0589   0.00    0.0
2016/11/13 11:00:25.000  -42.425462020  173.533652902   315.0173   6  10   0.0646   0.0745   0.1296  -0.0305   0.0250   0.0590   0.00    0.0
2016/11/13 11:00:26.000  -42.425462079  173.533652849   315.0227   6  10   0.0647   0.0745   0.1300  -0.0306   0.0251   0.0591   0.00    0.0
2016/11/13 11:00:27.000  -42.425462071  173.533652841   315.0174   6  10   0.0648   0.0746   0.1305  -0.0308   0.0251   0.0593   0.00    0.0
2016/11/13 11:00:28.000  -42.425462071  173.533652836   315.0232   6  10   0.0650   0.0747   0.1309  -0.0308   0.0251   0.0594   0.00    0.0
2016/11/13 11:00:29.000  -42.425462116  173.533652868   315.0318   6  10   0.0651   0.0747   0.1313  -0.0310   0.0254   0.0595   0.00    0.0
2016/11/13 11:00:30.000  -42.425462117  173.533652877   315.0282   6  10   0.0653   0.0747   0.1317  -0.0311   0.0253   0.0596   0.00    0.0
2016/11/13 11:00:31.000  -42.425462168  173.533652928   315.0216   6  10   0.0654   0.0748   0.1322  -0.0311   0.0254   0.0598   0.00    0.0
2016/11/13 11:00:32.000  -42.425462128  173.533652900   315.0296   6  10   0.0656   0.0748   0.1326  -0.0314   0.0255   0.0599   0.00    0.0
2016/11/13 11:00:33.000  -42.425462114  173.533652841   315.0337   6  10   0.0657   0.0749   0.1331  -0.0314   0.0256   0.0600   0.00    0.0
2016/11/13 11:00:34.000  -42.425462140  173.533652896   315.0328   6  10   0.0658   0.0750   0.1335  -0.0314   0.0256   0.0601   0.00    0.0
2016/11/13 11:00:35.000  -42.425462116  173.533652904   315.0351   6  10   0.0660   0.0750   0.1340  -0.0315   0.0257   0.0603   0.00    0.0
2016/11/13 11:00:36.000  -42.425462151  173.533652955   315.0363   6  10   0.0661   0.0750   0.1344  -0.0316   0.0258   0.0604   0.00    0.0
2016/11/13 11:00:37.000  -42.425462132  173.533652930   315.0401   6  10   0.0662   0.0751   0.1349  -0.0318   0.0259   0.0605   0.00    0.0
2016/11/13 11:00:38.000  -42.425462172  173.533652874   315.0409   6  10   0.0664   0.0751   0.1353  -0.0319   0.0259   0.0606   0.00    0.0
2016/11/13 11:00:39.000  -42.425462275  173.533652960   315.0331   6  10   0.0666   0.0752   0.1358  -0.0320   0.0261   0.0608   0.00    0.0
2016/11/13 11:00:40.000  -42.425462201  173.533652931   315.0431   6  10   0.0666   0.0752   0.1362  -0.0321   0.0262   0.0609   0.00    0.0
2016/11/13 11:00:41.000  -42.425462246  173.533652963   315.0381   6  10   0.0668   0.0753   0.1367  -0.0322   0.0262   0.0610   0.00    0.0
2016/11/13 11:00:42.000  -42.425462191  173.533652920   315.0325   6  10   0.0670   0.0753   0.1371  -0.0322   0.0262   0.0611   0.00    0.0
2016/11/13 11:00:43.000  -42.425462187  173.533652921   315.0275   6  10   0.0671   0.0754   0.1376  -0.0323   0.0264   0.0612   0.00    0.0
2016/11/13 11:00:44.000  -42.425462251  173.533652959   315.0368   6  10   0.0672   0.0754   0.1380  -0.0324   0.0265   0.0613   0.00    0.0
2016/11/13 11:00:45.000  -42.425462234  173.533652985   315.0407   6  10   0.0674   0.0755   0.1385  -0.0325   0.0265   0.0614   0.00    0.0
2016/11/13 11:00:46.000  -42.425462235  173.533652972   315.0346   6  10   0.0675   0.0755   0.1389  -0.0326   0.0267   0.0615   0.00    0.0
2016/11/13 11:00:47.000  -42.425462214  173.533652950   315.0403   6  10   0.0677   0.0755   0.1394  -0.0327   0.0267   0.0617   0.00    0.0
2016/11/13 11:00:48.000  -42.425462200  173.533653023   315.0453   6  10   0.0678   0.0756   0.1399  -0.0328   0.0268   0.0618   0.00    0.0
2016/11/13 11:00:49.000  -42.425462231  173.533653008   315.0486   6  10   0.0679   0.0756   0.1403  -0.0330   0.0269   0.0619   0.00    0.0
2016/11/13 11:00:50.000  -42.425462261  173.533653013   315.0479   6  10   0.0680   0.0757   0.1407  -0.0330   0.0271   0.0620   0.00    0.0
2016/11/13 11:00:51.000  -42.425462275  173.533653093   315.0437   6  10   0.0682   0.0757   0.1412  -0.0331   0.0271   0.0621   0.00    0.0
2016/11/13 11:00:52.000  -42.425462281  173.533653089   315.0545   6  10   0.0683   0.0758   0.1417  -0.0331   0.0271   0.0622   0.00    0.0
2016/11/13 11:00:53.000  -42.425462256  173.533652994   315.0547   6  10   0.0685   0.0758   0.1421  -0.0333   0.0273   0.0623   0.00    0.0
2016/11/13 11:00:54.000  -42.425462292  173.533653038   315.0502   6  10   0.0686   0.0758   0.1426  -0.0333   0.0273   0.0624   0.00    0.0
2016/11/13 11:00:55.000  -42.425462297  173.533652994   315.0464   6  10   0.0687   0.0759   0.1430  -0.0334   0.0274   0.0625   0.00    0.0
2016/11/13 11:00:56.000  -42.425462308  173.533653054   315.0471   6  10   0.0688   0.0759   0.1435  -0.0335   0.0276   0.0626   0.00    0.0
2016/11/13 11:00:57.000  -42.425462265  173.533652992   315.0583   6  10   0.0690   0.0760   0.1439  -0.0336   0.0276   0.0627   0.00    0.0
2016/11/13 11:00:58.000  -42.425462310  173.533653063   315.0583   6  10   0.0691   0.0760   0.1443  -0.0337   0.0277   0.0627   0.00    0.0
2016/11/13 11:00:59.000  -42.425462248  173.533653009   315.0573   6  10   0.0693   0.0761   0.1448  -0.0337   0.0279   0.0629   0.00    0.0
2016/11/13 11:01:00.000  -42.425462287  173.533653097   315.0567   6  10   0.0694   0.0761   0.1452  -0.0337   0.0279   0.0629   0.00    0.0
2016/11/13 11:01:01.000  -42.425462288  173.533653121   315.0699   6  10   0.0695   0.0761   0.1457  -0.0339   0.0280   0.0631   0.00    0.0
2016/11/13 11:01:02.000  -42.425462316  173.533653086   315.0789   6  10   0.0697   0.0762   0.1461  -0.0339   0.0281   0.0631   0.00    0.0
2016/11/13 11:01:03.000  -42.425462217  173.533653056   315.0839   6  10   0.0698   0.0762   0.1465  -0.0341   0.0283   0.0632   0.00    0.0
2016/11/13 11:01:04.000  -42.425462286  173.533653150   315.0691   6  10   0.0699   0.0762   0.1470  -0.0341   0.0284   0.0633   0.00    0.0
2016/11/13 11:01:05.000  -42.425462273  173.533653073   315.0845   6  10   0.0700   0.0763   0.1474  -0.0342   0.0284   0.0634   0.00    0.0
2016/11/13 11:01:06.000  -42.425462279  173.533653168   315.0759   6  10   0.0701   0.0763   0.1478  -0.0342   0.0285   0.0634   0.00    0.0
2016/11/13 11:01:07.000  -42.425462237  173.533653070   315.0765   6  10   0.0703   0.0763   0.1483  -0.0343   0.0286   0.0635   0.00    0.0
2016/11/13 11:01:08.000  -42.425462253  173.533653065   315.0655   6  10   0.0703   0.0764   0.1487  -0.0344   0.0287   0.0636   0.00    0.0
2016/11/13 11:01:09.000  -42.425462227  173.533653062   315.0777   6  10   0.0705   0.0764   0.1491  -0.0344   0.0288   0.0636   0.00    0.0
2016/11/13 11:01:10.000  -42.425462208  173.533653068   315.0792   6  10   0.0706   0.0764   0.1495  -0.0345   0.0289   0.0637   0.00    0.0
2016/11/13 11:01:11.000  -42.425462186  173.533653120   315.0771   6  10   0.0707   0.0765   0.1500  -0.0345   0.0290   0.0638   0.00    0.0
2016/11/13 11:01:12.000  -42.425462198  173.533653076   315.0691   6  10   0.0708   0.0765   0.1504  -0.0347   0.0291   0.0638   0.00    0.0
2016/11/13 11:01:13.000  -42.425462213  173.533653189   315.0687   6  10   0.0710   0.0765   0.1508  -0.0347   0.0293   0.0639   0.00    0.0
2016/11/13 11:01:14.000  -42.425462216  173.533653152   315.0606   6  10   0.0710   0.0766   0.1512  -0.0347   0.0293   0.0639   0.00    0.0
2016/11/13 11:01:15.000  -42.425462217  173.533653129   315.0605   6  10   0.0711   0.0766   0.1516  -0.0348   0.0295   0.0640   0.00    0.0
2016/11/13 11:01:16.000  -42.425462219  173.533653150   315.0681   6  10   0.0713   0.0766   0.1521  -0.0348   0.0296   0.0640   0.00    0.0
2016/11/13 11:01:17.000  -42.425462190  173.533653190   315.0786   6  10   0.0714   0.0767   0.1525  -0.0348   0.0296   0.0641   0.00    0.0
2016/11/13 11:01:18.000  -42.425462164  173.533653204   315.0814   6  10   0.0715   0.0767   0.1529  -0.0349   0.0297   0.0641   0.00    0.0
2016/11/13 11:01:19.000  -42.425462173  173.533653180   315.0813   6  10   0.0716   0.0767   0.1532  -0.0349   0.0298   0.0642   0.00    0.0
2016/11/13 11:01:20.000  -42.425462168  173.533653176   315.0769   6  10   0.0717   0.0767   0.1537  -0.0350   0.0300   0.0643   0.00    0.0
2016/11/13 11:01:21.000  -42.425462205  173.533653203   315.0681   6  10   0.0718   0.0768   0.1540  -0.0350   0.0300   0.0643   0.00    0.0
2016/11/13 11:01:22.000  -42.425462215  173.533653262   315.0658   6  10   0.0719   0.0768   0.1545  -0.0351   0.0301   0.0643   0.00    0.0
2016/11/13 11:01:23.000  -42.425462209  173.533653148   315.0704   6  10   0.0720   0.0768   0.1548  -0.0351   0.0302   0.0643   0.00    0.0
2016/11/13 11:01:24.000  -42.425462199  173.533653159   315.0762   6  10   0.0721   0.0768   0.1552  -0.0352   0.0303   0.0644   0.00    0.0
2016/11/13 11:01:25.000  -42.425462221  173.533653196   315.0712   6  10   0.0722   0.0768   0.1556  -0.0352   0.0304   0.0644   0.00    0.0
2016/11/13 11:01:26.000  -42.425462238  173.533653181   315.0756   6  10   0.0723   0.0769   0.1560  -0.0352   0.0305   0.0644   0.00    0.0
2016/11/13 11:01:27.000  -42.425462237  173.533653217   315.0804   6  10   0.0724   0.0769   0.1564  -0.0353   0.0306   0.0644   0.00    0.0
2016/11/13 11:01:28.000  -42.425462205  173.533653178   315.0771   6  10   0.0725   0.0769   0.1567  -0.0353   0.0307   0.0645   0.00    0.0
2016/11/13 11:01:29.000  -42.425462198  173.533653175   315.0820   6  10   0.0726   0.0770   0.1571  -0.0353   0.0308   0.0645   0.00    0.0
2016/11/13 11:01:30.000  -42.425462183  173.533653227   315.0819   6  10   0.0727   0.0770   0.1574  -0.0353   0.0309   0.0645   0.00    0.0
2016/11/13 11:01:31.000  -42.425462199  173.533653201   315.0768   6  10   0.0728   0.0770   0.1578  -0.0354   0.0310   0.0645   0.00    0.0
2016/11/13 11:01:32.000  -42.425462179  173.533653175   315.0802   6  10   0.0728   0.0770   0.1582  -0.0354   0.0311   0.0645   0.00    0.0
2016/11/13 11:01:33.000  -42.425462187  173.533653249   315.0930   6  10   0.0730   0.0771   0.1585  -0.0353   0.0311   0.0645   0.00    0.0
2016/11/13 11:01:34.000  -42.425462164  173.533653189   315.0895   6  10   0.0730   0.0771   0.1588  -0.0354   0.0313   0.0645   0.00    0.0
2016/11/13 11:01:35.000  -42.425462142  173.533653205   315.0922   6  10   0.0731   0.0771   0.1591  -0.0354   0.0314   0.0645   0.00    0.0
2016/11/13 11:01:36.000  -42.425462153  173.533653264   315.0901   6  10   0.0732   0.0771   0.1595  -0.0354   0.0315   0.0645   0.00    0.0
2016/11/13 11:01:37.000  -42.425462142  173.533653247   315.0859   6  10   0.0733   0.0771   0.1598  -0.0354   0.0316   0.0645   0.00    0.0
2016/11/13 11:01:38.000  -42.425462159  173.533653255   315.0831   6  10   0.0733   0.0771   0.1601  -0.0355   0.0317   0.0645   0.00    0.0
2016/11/13 11:01:39.000  -42.425462189  173.533653208   315.0815   6  10   0.0734   0.0771   0.1604  -0.0354   0.0318   0.0645   0.00    0.0
2016/11/13 11:01:40.000  -42.425462222  173.533653184   315.0745   6  10   0.0735   0.0772   0.1608  -0.0354   0.0319   0.0645   0.00    0.0
2016/11/13 11:01:41.000  -42.425462243  173.533653172   315.0812   6  10   0.0736   0.0772   0.1611  -0.0354   0.0320   0.0645   0.00    0.0
2016/11/13 11:01:42.000  -42.425462241  173.533653189   315.0793   6  10   0.0737   0.0772   0.1614  -0.0355   0.0321   0.0645   0.00    0.0
2016/11/13 11:01:43.000  -42.425462253  173.533653258   315.0779   6  10   0.0737   0.0772   0.1617  -0.0354   0.0321   0.0644   0.00    0.0
2016/11/13 11:01:44.000  -42.425462236  173.533653186   315.0771   6  10   0.0738   0.0772   0.1620  -0.0354   0.0322   0.0644   0.00    0.0
2016/11/13 11:01:45.000  -42.425462289  173.533653193   315.0804   6  10   0.0739   0.0772   0.1622  -0.0354   0.0323   0.0644   0.00    0.0
2016/11/13 11:01:46.000  -42.425462266  173.533653220   315.0911   6  10   0.0739   0.0772   0.1625  -0.0354   0.0324   0.0644   0.00    0.0
2016/11/13 11:01:47.000  -42.425462316  173.533653251   315.0909   6  10   0.0740   0.0772   0.1628  -0.0354   0.0325   0.0643   0.00    0.0
2016/11/13 11:01:48.000  -42.425462286  173.533653215   315.1061   6  10   0.0740   0.0772   0.1631  -0.0354   0.0325   0.0643   0.00    0.0
2016/11/13 11:01:49.000  -42.425462289  173.533653157   315.1035   6  10   0.0741   0.0773   0.1633  -0.0353   0.0326   0.0643   0.00    0.0
2016/11/13 11:01:50.000  -42.425462275  173.533653186   315.0954   6  10   0.0742   0.0773   0.1636  -0.0353   0.0327   0.0642   0.00    0.0
2016/11/13 11:01:51.000  -42.425462295  173.533653193   315.0960   6  10   0.0742   0.0773   0.1638  -0.0353   0.0328   0.0642   0.00    0.0
2016/11/13 11:01:52.000  -42.425462309  173.533653155   315.0954   6  10   0.0743   0.0773   0.1641  -0.0352   0.0329   0.0641   0.00    0.0
2016/11/13 11:01:53.000  -42.425462286  173.533653198   315.1142   6  10   0.0743   0.0773   0.1643  -0.0353   0.0330   0.0641   0.00    0.0
2016/11/13 11:01:54.000  -42.425462333  173.533653213   315.1056   6  10   0.0744   0.0773   0.1645  -0.0352   0.0330   0.0640   0.00    0.0
2016/11/13 11:01:55.000  -42.425462380  173.533653216   315.0984   6  10   0.0744   0.0773   0.1648  -0.0352   0.0332   0.0640   0.00    0.0
2016/11/13 11:01:56.000  -42.425462372  173.533653126   315.1058   6  10   0.0745   0.0773   0.1650  -0.0351   0.0332   0.0639   0.00    0.0
2016/11/13 11:01:57.000  -42.425462301  173.533653213   315.1121   6  10   0.0745   0.0773   0.1652  -0.0351   0.0333   0.0639   0.00    0.0
2016/11/13 11:01:58.000  -42.425462321  173.533653193   315.1079   6  10   0.0746   0.0773   0.1654  -0.0351   0.0334   0.0638   0.00    0.0
2016/11/13 11:01:59.000  -42.425462307  173.533653143   315.1172   6  10   0.0746   0.0773   0.1656  -0.0350   0.0334   0.0637   0.00    0.0
2016/11/13 11:02:00.000  -42.425462345  173.533653160   315.1090   6  10   0.0746   0.0773   0.1658  -0.0349   0.0335   0.0636   0.00    0.0
2016/11/13 11:02:01.000  -42.425462351  173.533653202   315.1082   6  10   0.0747   0.0773   0.1660  -0.0348   0.0336   0.0636   0.00    0.0
2016/11/13 11:02:02.000  -42.425462353  173.533653170   315.1067   6  10   0.0747   0.0773   0.1661  -0.0348   0.0336   0.0635   0.00    0.0
2016/11/13 11:02:03.000  -42.425462366  173.533653203   315.1093   6  10   0.0748   0.0773   0.1663  -0.0348   0.0337   0.0634   0.00    0.0
2016/11/13 11:02:04.000  -42.425462364  173.533653215   315.1099   6  10   0.0748   0.0773   0.1665  -0.0347   0.0338   0.0634   0.00    0.0
2016/11/13 11:02:05.000  -42.425462378  173.533653238   315.1136   6  10   0.0748   0.0773   0.1666  -0.0346   0.0338   0.0633   0.00    0.0
2016/11/13 11:02:06.000  -42.425462361  173.533653154   315.1103   6  10   0.0748   0.0773   0.1668  -0.0346   0.0339   0.0632   0.00    0.0
2016/11/13 11:02:07.000  -42.425462391  173.533653158   315.1059   6  10   0.0749   0.0773   0.1669  -0.0345   0.0339   0.0631   0.00    0.0
2016/11/13 11:02:08.000  -42.425462360  173.533653192   315.1081   6  10   0.0749   0.0773   0.1671  -0.0344   0.0340   0.0630   0.00    0.0
2016/11/13 11:02:09.000  -42.425462391  173.533653222   315.1051   6  10   0.0749   0.0773   0.1672  -0.0344   0.0340   0.0630   0.00    0.0
2016/11/13 11:02:10.000  -42.425462377  173.533653207   315.1193   6  10   0.0749   0.0773   0.1673  -0.0343   0.0341   0.0629   0.00    0.0
2016/11/13 11:02:11.000  -42.425462380  173.533653225   315.1204   6  10   0.0750   0.0773   0.1674  -0.0342   0.0341   0.0628   0.00    0.0
2016/11/13 11:02:12.000  -42.425462374  173.533653187   315.1280   6  10   0.0750   0.0773   0.1675  -0.0341   0.0342   0.0627   0.00    0.0
2016/11/13 11:02:13.000  -42.425462370  173.533653220   315.1329   6  10   0.0750   0.0772   0.1676  -0.0340   0.0342   0.0626   0.00    0.0
2016/11/13 11:02:14.000  -42.425462311  173.533653236   315.1321   6  10   0.0750   0.0772   0.1677  -0.0339   0.0343   0.0625   0.00    0.0
2016/11/13 11:02:15.000  -42.425462359  173.533653218   315.1345   6  10   0.0750   0.0772   0.1678  -0.0338   0.0343   0.0624   0.00    0.0
2016/11/13 11:02:16.000  -42.425462351  173.533653180   315.1332   6  10   0.0750   0.0772   0.1679  -0.0337   0.0344   0.0623   0.00    0.0
2016/11/13 11:02:17.000  -42.425462324  173.533653171   315.1416   6  10   0.0751   0.0772   0.1679  -0.0336   0.0344   0.0622   0.00    0.0
2016/11/13 11:02:18.000  -42.425462332  173.533653236   315.1450   6  10   0.0751   0.0772   0.1680  -0.0335   0.0344   0.0621   0.00    0.0
2016/11/13 11:02:19.000  -42.425462295  173.533653217   315.1532   6  10   0.0751   0.0772   0.1680  -0.0334   0.0345   0.0620   0.00    0.0
2016/11/13 11:02:20.000  -42.425462289  173.533653272   315.1403   6  10   0.0751   0.0772   0.1681  -0.0333   0.0345   0.0619   0.00    0.0
2016/11/13 11:02:21.000  -42.425462287  173.533653284   315.1529   6  10   0.0751   0.0771   0.1681  -0.0332   0.0345   0.0617   0.00    0.0
2016/11/13 11:02:22.000  -42.425462275  173.533653274   315.1587   6  10   0.0751   0.0772   0.1682  -0.0330   0.0345   0.0616   0.00    0.0
2016/11/13 11:02:23.000  -42.425462271  173.533653290   315.1560   6  10   0.0751   0.0771   0.1682  -0.0329   0.0345   0.0615   0.00    0.0
2016/11/13 11:02:24.000  -42.425462290  173.533653266   315.1497   6  10   0.0751   0.0771   0.1682  -0.0328   0.0346   0.0614   0.00    0.0
2016/11/13 11:02:25.000  -42.425462297  173.533653306   315.1588   6  10   0.0751   0.0771   0.1682  -0.0326   0.0346   0.0612   0.00    0.0
2016/11/13 11:02:26.000  -42.425462215  173.533653261   315.1464   6  10   0.0751   0.0771   0.1682  -0.0325   0.0346   0.0611   0.00    0.0
2016/11/13 11:02:27.000  -42.425462290  173.533653280   315.1423   6  10   0.0751   0.0771   0.1682  -0.0324   0.0346   0.0610   0.00    0.0
2016/11/13 11:02:28.000  -42.425462274  173.533653254   315.1415   6  10   0.0751   0.0771   0.1682  -0.0322   0.0346   0.0609   0.00    0.0
2016/11/13 11:02:29.000  -42.425462276  173.533653235   315.1490   6  10   0.0751   0.0770   0.1682  -0.0322   0.0346   0.0608   0.00    0.0
2016/11/13 11:02:30.000  -42.425462277  173.533653199   315.1253   6  10   0.0750   0.0770   0.1682  -0.0320   0.0346   0.0606   0.00    0.0
2016/11/13 11:02:31.000  -42.425462235  173.533653237   315.1357   6  10   0.0750   0.0770   0.1681  -0.0318   0.0346   0.0605   0.00    0.0
2016/11/13 11:02:32.000  -42.425462245  173.533653252   315.1360   6  10   0.0750   0.0770   0.1681  -0.0317   0.0346   0.0604   0.00    0.0
2016/11/13 11:02:33.000  -42.425462236  173.533653197   315.1346   6  10   0.0750   0.0770   0.1681  -0.0315   0.0346   0.0602   0.00    0.0
2016/11/13 11:02:34.000  -42.425462199  173.533653234   315.1380   6  10   0.0750   0.0770   0.1680  -0.0314   0.0346   0.0601   0.00    0.0
2016/11/13 11:02:35.000  -42.425462211  173.533653224   315.1316   6  10   0.0750   0.0769   0.1679  -0.0312   0.0346   0.0600   0.00    0.0
2016/11/13 11:02:36.000  -42.425462217  173.533653238   315.1327   6  10   0.0750   0.0769   0.1679  -0.0310   0.0346   0.0598   0.00    0.0
2016/11/13 11:02:37.000  -42.425462218  173.533653276   315.1332   6  10   0.0750   0.0769   0.1678  -0.0309   0.0347   0.0597   0.00    0.0
2016/11/13 11:02:38.000  -42.425462223  173.533653229   315.1411   6  10   0.0750   0.0769   0.1677  -0.0307   0.0346   0.0596   0.00    0.0
2016/11/13 11:02:39.000  -42.425462236  173.533653242   315.1388   6  10   0.0749   0.0769   0.1676  -0.0306   0.0346   0.0594   0.00    0.0
2016/11/13 11:02:40.000  -42.425462237  173.533653281   315.1526   6  10   0.0749   0.0769   0.1676  -0.0303   0.0346   0.0593   0.00    0.0
2016/11/13 11:02:41.000  -42.425462241  173.533653280   315.1351   6  10   0.0749   0.0768   0.1675  -0.0302   0.0346   0.0591   0.00    0.0
2016/11/13 11:02:42.000  -42.425462239  173.533653338   315.1297   6  10   0.0749   0.0768   0.1673  -0.0300   0.0345   0.0590   0.00    0.0
2016/11/13 11:02:43.000  -42.425462277  173.533653218   315.1258   6  10   0.0748   0.0768   0.1672  -0.0298   0.0345   0.0588   0.00    0.0
2016/11/13 11:02:44.000  -42.425462218  173.533653200   315.1314   6  10   0.0748   0.0768   0.1671  -0.0296   0.0345   0.0587   0.00    0.0
2016/11/13 11:02:45.000  -42.425462233  173.533653219   315.1195   6  10   0.0748   0.0768   0.1670  -0.0294   0.0345   0.0585   0.00    0.0
2016/11/13 11:02:46.000  -42.425462280  173.533653219   315.1304   6  10   0.0747   0.0767   0.1669  -0.0292   0.0345   0.0584   0.00    0.0
2016/11/13 11:02:47.000  -42.425462255  173.533653245   315.1191   6  10   0.0747   0.0767   0.1667  -0.0290   0.0344   0.0582   0.00    0.0
2016/11/13 11:02:48.000  -42.425462236  173.533653192   315.1209   6  10   0.0747   0.0767   0.1666  -0.0287   0.0344   0.0581   0.00    0.0
2016/11/13 11:02:49.000  -42.425462253  173.533653245   315.1294   6  10   0.0747   0.0767   0.1665  -0.0286   0.0344   0.0579   0.00    0.0
2016/11/13 11:02:50.000  -42.425462275  173.533653229   315.1175   6  10   0.0746   0.0767   0.1663  -0.0283   0.0343   0.0578   0.00    0.0
2016/11/13 11:02:51.000  -42.425462255  173.533653249   315.1317   6  10   0.0746   0.0766   0.1661  -0.0281   0.0343   0.0576   0.00    0.0
2016/11/13 11:02:52.000  -42.425462228  173.533653224   315.1198   6  10   0.0746   0.0766   0.1660  -0.0279   0.0343   0.0575   0.00    0.0
2016/11/13 11:02:53.000  -42.425462230  173.533653256   315.1201   6  10   0.0745   0.0766   0.1658  -0.0276   0.0342   0.0573   0.00    0.0
2016/11/13 11:02:54.000  -42.425462212  173.533653216   315.1156   6  10   0.0745   0.0766   0.1656  -0.0273   0.0341   0.0571   0.00    0.0
2016/11/13 11:02:55.000  -42.425462145  173.533653201   315.1186   6  10   0.0745   0.0766   0.1654  -0.0271   0.0341   0.0570   0.00    0.0
2016/11/13 11:02:56.000  -42.425462165  173.533653183   315.1065   6  10   0.0745   0.0765   0.1653  -0.0269   0.0341   0.0569   0.00    0.0
2016/11/13 11:02:57.000  -42.425462123  173.533653192   315.1115   6  10   0.0744   0.0765   0.1651  -0.0266   0.0340   0.0567   0.00    0.0
2016/11/13 11:02:58.000  -42.425462129  173.533653143   315.1168   6  10   0.0744   0.0765   0.1649  -0.0264   0.0339   0.0565   0.00    0.0
2016/11/13 11:02:59.000  -42.425462112  173.533653153   315.0968   6  10   0.0743   0.0765   0.1647  -0.0261   0.0339   0.0564   0.00    0.0
2016/11/13 11:03:00.000  -42.425462105  173.533653097   315.1056   6  10   0.0743   0.0764   0.1645  -0.0258   0.0338   0.0562   0.00    0.0
2016/11/13 11:03:01.000  -42.425462089  173.533653135   315.1135   6  10   0.0743   0.0764   0.1643  -0.0256   0.0338   0.0561   0.00    0.0
2016/11/13 11:03:02.000  -42.425462109  173.533653144   315.1123   6  10   0.0742   0.0764   0.1641  -0.0253   0.0337   0.0559   0.00    0.0
2016/11/13 11:03:03.000  -42.425462118  173.533653130   315.1126   6  10   0.0742   0.0764   0.1639  -0.0251   0.0337   0.0557   0.00    0.0
2016/11/13 11:03:04.000  -42.425462130  173.533653059   315.1086   6  10   0.0742   0.0764   0.1636  -0.0247   0.0336   0.0555   0.00    0.0
2016/11/13 11:03:05.000  -42.425462169  173.533653111   315.1001   6  10   0.0741   0.0764   0.1634  -0.0244   0.0335   0.0554   0.00    0.0
2016/11/13 11:03:06.000  -42.425462177  173.533653112   315.1074   6  10   0.0741   0.0763   0.1632  -0.0241   0.0335   0.0552   0.00    0.0
2016/11/13 11:03:07.000  -42.425462193  173.533653098   315.1170   6  10   0.0741   0.0763   0.1629  -0.0238   0.0333   0.0550   0.00    0.0
2016/11/13 11:03:08.000  -42.425462137  173.533653150   315.1074   6  10   0.0740   0.0763   0.1627  -0.0235   0.0333   0.0549   0.00    0.0
2016/11/13 11:03:09.000  -42.425462195  173.533653122   315.1062   6  10   0.0740   0.0763   0.1625  -0.0232   0.0332   0.0547   0.00    0.0
2016/11/13 11:03:10.000  -42.425462154  173.533653059   315.1010   6  10   0.0739   0.0763   0.1622  -0.0229   0.0332   0.0545   0.00    0.0
2016/11/13 11:03:11.000  -42.425462150  173.533653094   315.1055   6  10   0.0739   0.0763   0.1619  -0.0224   0.0331   0.0544   0.00    0.0
2016/11/13 11:03:12.000  -42.425462121  173.533653000   315.0954   6  10   0.0739   0.0763   0.1617  -0.0221   0.0330   0.0542   0.00    0.0
2016/11/13 11:03:13.000  -42.425462107  173.533653060   315.0982   6  10   0.0739   0.0763   0.1615  -0.0218   0.0329   0.0540   0.00    0.0
2016/11/13 11:03:14.000  -42.425462064  173.533653036   315.0989   6  10   0.0738   0.0762   0.1612  -0.0214   0.0329   0.0539   0.00    0.0
2016/11/13 11:03:15.000  -42.425461977  173.533653088   315.0860   6  10   0.0738   0.0763   0.1609  -0.0210   0.0328   0.0537   0.00    0.0
2016/11/13 11:03:16.000  -42.425461969  173.533653069   315.0826   6  10   0.0737   0.0762   0.1607  -0.0206   0.0327   0.0535   0.00    0.0
2016/11/13 11:03:17.000  -42.425461969  173.533653035   315.0838   6  10   0.0737   0.0762   0.1604  -0.0203   0.0326   0.0534   0.00    0.0
2016/11/13 11:03:18.000  -42.425461969  173.533653075   315.0696   6  10   0.0737   0.0762   0.1601  -0.0198   0.0325   0.0532   0.00    0.0
2016/11/13 11:03:19.000  -42.425461957  173.533653070   315.0733   6  10   0.0736   0.0762   0.1598  -0.0194   0.0325   0.0530   0.00    0.0
2016/11/13 11:03:20.000  -42.425461958  173.533653072   315.0741   6  10   0.0736   0.0762   0.1596  -0.0189   0.0323   0.0529   0.00    0.0
2016/11/13 11:03:21.000  -42.425461948  173.533653018   315.0590   6  10   0.0736   0.0761   0.1593  -0.0185   0.0322   0.0527   0.00    0.0
2016/11/13 11:03:22.000  -42.425461937  173.533653023   315.0563   6  10   0.0735   0.0762   0.1590  -0.0180   0.0321   0.0525   0.00    0.0
2016/11/13 11:03:23.000  -42.425461915  173.533653020   315.0719   6  10   0.0735   0.0761   0.1587  -0.0176   0.0321   0.0523   0.00    0.0
2016/11/13 11:03:24.000  -42.425461903  173.533653036   315.0685   6  10   0.0735   0.0761   0.1584  -0.0170   0.0319   0.0521   0.00    0.0
2016/11/13 11:03:25.000  -42.425461913  173.533653065   315.0687   6  10   0.0734   0.0761   0.1581  -0.0165   0.0319   0.0520   0.00    0.0
2016/11/13 11:03:26.000  -42.425461910  173.533653064   315.0722   6  10   0.0734   0.0761   0.1579  -0.0160   0.0318   0.0518   0.00    0.0
2016/11/13 11:03:27.000  -42.425461988  173.533653116   315.0717   6  10   0.0734   0.0761   0.1576  -0.0155   0.0317   0.0516   0.00    0.0
2016/11/13 11:03:28.000  -42.425461957  173.533653215   315.0780   6  10   0.0734   0.0761   0.1573  -0.0150   0.0316   0.0514   0.00    0.0
2016/11/13 11:03:29.000  -42.425462071  173.533653400   315.0756   6  10   0.0733   0.0761   0.1570  -0.0142   0.0315   0.0512   0.00    0.0
2016/11/13 11:03:30.000  -42.425462134  173.533653659   315.0600   6  10   0.0733   0.0761   0.1567  -0.0134   0.0313   0.0511   0.00    0.0
2016/11/13 11:03:31.000  -42.425462322  173.533653754   315.0578   6  10   0.0733   0.0761   0.1564  -0.0128   0.0312   0.0509   0.00    0.0
2016/11/13 11:03:32.000  -42.425462444  173.533653839   315.0345   6  10   0.0733   0.0761   0.1561  -0.0123   0.0311   0.0508   0.00    0.0
2016/11/13 11:03:33.000  -42.425462076  173.533653477   315.0599   6  10   0.0733   0.0761   0.1558  -0.0113   0.0310   0.0506   0.00    0.0
2016/11/13 11:03:34.000  -42.425461470  173.533653407   315.0608   6  10   0.0732   0.0761   0.1555  -0.0104   0.0309   0.0504   0.00    0.0
2016/11/13 11:03:35.000  -42.425460843  173.533652542   315.0630   6  10   0.0732   0.0761   0.1552  -0.0096   0.0308   0.0501   0.00    0.0
2016/11/13 11:03:36.000  -42.425460594  173.533651870   315.1082   6  10   0.0732   0.0761   0.1549  -0.0082   0.0307   0.0500   0.00    0.0
2016/11/13 11:03:37.000  -42.425460768  173.533651231   315.1115   6  10   0.0732   0.0761   0.1546  -0.0070   0.0305   0.0498   0.00    0.0
2016/11/13 11:03:38.000  -42.425461365  173.533651246   315.0691   6  10   0.0731   0.0761   0.1544  -0.0057   0.0304   0.0496   0.00    0.0
2016/11/13 11:03:39.000  -42.425461399  173.533652506   315.0512   6  10   0.0731   0.0761   0.1540  -0.0041   0.0304   0.0494   0.00    0.0
2016/11/13 11:03:40.000  -42.425460742  173.533657065   315.1028   6  10   0.0731   0.0761   0.1537   0.0021   0.0303   0.0492   0.00    0.0
2016/11/13 11:03:41.000  -42.425459397  173.533661453   315.2253   6  10   0.0731   0.0761   0.1534   0.0048   0.0301   0.0491   0.00    0.0
2016/11/13 11:03:42.000  -42.425457005  173.533664253   315.5027   6  10   0.0731   0.0762   0.1531   0.0065   0.0300   0.0489   0.00    0.0
2016/11/13 11:03:43.000  -42.425454839  173.533664944   316.0235   6  10   0.0731   0.0761   0.1528   0.0079   0.0299   0.0487   0.00    0.0
2016/11/13 11:03:44.000  -42.425453491  173.533664264   316.2614   6  10   0.0731   0.0761   0.1525   0.0093   0.0296   0.0485   0.00    0.0
2016/11/13 11:03:46.000  -42.425455578  173.533657379   316.4621   6   9   0.7648   0.9762   1.9650  -0.2584   0.7356   0.9147   0.00    0.0
2016/11/13 11:03:47.000  -42.425455748  173.533659156   315.9276   6  10   0.0348   0.0405   0.0623   0.0155   0.0145   0.0269   0.00    0.0
2016/11/13 11:03:48.000  -42.425455866  173.533657248   315.9949   6  10   0.0352   0.0395   0.0614   0.0130   0.0102   0.0244   0.00    0.0
2016/11/13 11:03:49.000  -42.425456490  173.533657926   315.9892   6  10   0.0350   0.0396   0.0613   0.0130   0.0104   0.0242   0.00    0.0
2016/11/13 11:03:50.000  -42.425456596  173.533659414   315.9517   6  10   0.0323   0.0395   0.0611   0.0122   0.0108   0.0260   0.00    0.0
2016/11/13 11:03:51.000  -42.425455714  173.533660654   315.8528   6  10   0.0323   0.0395   0.0611   0.0119   0.0109   0.0261   0.00    0.0
2016/11/13 11:03:52.000  -42.425455412  173.533661636   315.7958   6  10   0.0324   0.0396   0.0612   0.0124   0.0106   0.0260   0.00    0.0
2016/11/13 11:03:53.000  -42.425455653  173.533661297   315.7220   6  10   0.0323   0.0396   0.0613   0.0121   0.0105   0.0260   0.00    0.0
2016/11/13 11:03:54.000  -42.425455490  173.533662405   315.6747   6  10   0.0323   0.0395   0.0613   0.0120   0.0108   0.0261   0.00    0.0
2016/11/13 11:03:55.000  -42.425455792  173.533662782   315.6325   6  10   0.0323   0.0395   0.0613   0.0120   0.0108   0.0260   0.00    0.0
2016/11/13 11:03:56.000  -42.425457136  173.533662652   315.6919   6  10   0.0323   0.0395   0.0614   0.0120   0.0107   0.0262   0.00    0.0
2016/11/13 11:03:57.000  -42.425457197  173.533662691   315.7497   6  10   0.0324   0.0396   0.0615   0.0120   0.0106   0.0261   0.00    0.0
2016/11/13 11:03:58.000  -42.425456957  173.533663243   315.7983   6  10   0.0324   0.0396   0.0616   0.0119   0.0106   0.0262   0.00    0.0
2016/11/13 11:03:59.000  -42.425456925  173.533663171   315.7500   6  10   0.0324   0.0396   0.0616   0.0123   0.0106   0.0262   0.00    0.0
2016/11/13 11:04:00.000  -42.425456458  173.533662947   315.7356   6  10   0.0323   0.0395   0.0615   0.0119   0.0106   0.0261   0.00    0.0
2016/11/13 11:04:01.000  -42.425456045  173.533662995   315.7603   6  10   0.0323   0.0396   0.0616   0.0118   0.0107   0.0262   0.00    0.0
2016/11/13 11:04:02.000  -42.425456272  173.533663070   315.7458   6  10   0.0324   0.0396   0.0617   0.0117   0.0106   0.0262   0.00    0.0
2016/11/13 11:04:03.000  -42.425455918  173.533662788   315.7255   6  10   0.0324   0.0396   0.0618   0.0116   0.0106   0.0263   0.00    0.0
2016/11/13 11:04:04.000  -42.425456045  173.533662757   315.7228   6  10   0.0324   0.0396   0.0618   0.0118   0.0106   0.0262   0.00    0.0
2016/11/13 11:04:05.000  -42.425456218  173.533662515   315.7557   6  10   0.0325   0.0395   0.0619   0.0116   0.0105   0.0264   0.00    0.0
2016/11/13 11:04:06.000  -42.425456041  173.533662705   315.7634   6  10   0.0325   0.0396   0.0619   0.0116   0.0108   0.0264   0.00    0.0
2016/11/13 11:04:07.000  -42.425455908  173.533662423   315.7588   6  10   0.0324   0.0396   0.0620   0.0113   0.0105   0.0263   0.00    0.0
2016/11/13 11:04:08.000  -42.425455836  173.533662168   315.7481   6  10   0.0324   0.0396   0.0621   0.0116   0.0103   0.0263   0.00    0.0
2016/11/13 11:04:09.000  -42.425455546  173.533662005   315.7750   6  10   0.0324   0.0396   0.0622   0.0116   0.0102   0.0263   0.00    0.0
2016/11/13 11:04:10.000  -42.425455778  173.533662470   315.7625   6  10   0.0325   0.0396   0.0622   0.0115   0.0106   0.0265   0.00    0.0
2016/11/13 11:04:11.000  -42.425455987  173.533662612   315.7556   6  10   0.0324   0.0396   0.0622   0.0115   0.0103   0.0265   0.00    0.0
2016/11/13 11:04:12.000  -42.425456345  173.533662527   315.7435   6  10   0.0325   0.0397   0.0623   0.0113   0.0104   0.0265   0.00    0.0
2016/11/13 11:04:13.000  -42.425456375  173.533662283   315.7364   6  10   0.0326   0.0397   0.0624   0.0117   0.0102   0.0265   0.00    0.0
2016/11/13 11:04:14.000  -42.425456397  173.533662717   315.7440   6  10   0.0326   0.0397   0.0623   0.0114   0.0103   0.0266   0.00    0.0
2016/11/13 11:04:15.000  -42.425456300  173.533662963   315.7571   6  10   0.0325   0.0397   0.0624   0.0113   0.0106   0.0265   0.00    0.0
2016/11/13 11:04:16.000  -42.425456133  173.533662561   315.7790   6  10   0.0325   0.0397   0.0624   0.0114   0.0104   0.0265   0.00    0.0
2016/11/13 11:04:17.000  -42.425456009  173.533662779   315.7906   6  10   0.0325   0.0396   0.0625   0.0110   0.0104   0.0266   0.00    0.0
2016/11/13 11:04:18.000  -42.425455807  173.533662886   315.7874   6  10   0.0326   0.0396   0.0626   0.0110   0.0106   0.0266   0.00    0.0
2016/11/13 11:04:19.000  -42.425455589  173.533662861   315.7915   6  10   0.0326   0.0397   0.0626   0.0113   0.0102   0.0266   0.00    0.0
2016/11/13 11:04:20.000  -42.425455841  173.533662551   315.7792   6  10   0.0326   0.0397   0.0626   0.0113   0.0103   0.0267   0.00    0.0
2016/11/13 11:04:21.000  -42.425456192  173.533662464   315.7604   6  10   0.0326   0.0397   0.0627   0.0112   0.0103   0.0267   0.00    0.0
2016/11/13 11:04:22.000  -42.425456789  173.533662649   315.7507   6  10   0.0326   0.0398   0.0628   0.0109   0.0103   0.0267   0.00    0.0
2016/11/13 11:04:23.000  -42.425457292  173.533662336   315.7514   6  10   0.0327   0.0397   0.0628   0.0111   0.0098   0.0268   0.00    0.0
2016/11/13 11:04:24.000  -42.425457688  173.533662198   315.7313   6  10   0.0327   0.0397   0.0629   0.0111   0.0100   0.0268   0.00    0.0
2016/11/13 11:04:25.000  -42.425458202  173.533661886   315.7179   6  10   0.0327   0.0397   0.0629   0.0107   0.0106   0.0268   0.00    0.0
2016/11/13 11:04:26.000  -42.425458671  173.533661483   315.7187   6  10   0.0327   0.0397   0.0630   0.0111   0.0100   0.0268   0.00    0.0
2016/11/13 11:04:27.000  -42.425458778  173.533660428   315.7334   6  10   0.0327   0.0398   0.0631   0.0111   0.0100   0.0268   0.00    0.0
2016/11/13 11:04:28.000  -42.425458311  173.533659378   315.7701   6  10   0.0327   0.0398   0.0631   0.0108   0.0101   0.0268   0.00    0.0
2016/11/13 11:04:29.000  -42.425457777  173.533659049   315.7842   6  10   0.0328   0.0398   0.0631   0.0108   0.0102   0.0269   0.00    0.0
2016/11/13 11:04:30.000  -42.425457960  173.533659218   315.7652   6  10   0.0327   0.0398   0.0631   0.0107   0.0103   0.0268   0.00    0.0
2016/11/13 11:04:31.000  -42.425458338  173.533660672   315.7438   6  10   0.0328   0.0398   0.0632   0.0107   0.0100   0.0269   0.00    0.0
2016/11/13 11:04:32.000  -42.425459067  173.533662242   315.7182   6  10   0.0328   0.0398   0.0633   0.0107   0.0100   0.0269   0.00    0.0
2016/11/13 11:04:33.000  -42.425460429  173.533663759   315.6614   6  10   0.0327   0.0398   0.0634   0.0107   0.0103   0.0270   0.00    0.0
2016/11/13 11:04:34.000  -42.425461474  173.533665214   315.5944   6  10   0.0328   0.0398   0.0634   0.0107   0.0102   0.0269   0.00    0.0
2016/11/13 11:04:35.000  -42.425461984  173.533666505   315.5908   6  10   0.0328   0.0398   0.0634   0.0108   0.0099   0.0270   0.00    0.0
2016/11/13 11:04:36.000  -42.425461494  173.533666103   315.6172   6  10   0.0328   0.0398   0.0635   0.0108   0.0099   0.0270   0.00    0.0
2016/11/13 11:04:37.000  -42.425460687  173.533665167   315.6523   6  10   0.0328   0.0399   0.0637   0.0108   0.0097   0.0271   0.00    0.0
2016/11/13 11:04:38.000  -42.425459979  173.533663502   315.7568   6  10   0.0328   0.0399   0.0637   0.0106   0.0097   0.0270   0.00    0.0
2016/11/13 11:04:39.000  -42.425458986  173.533661642   315.8324   6  10   0.0329   0.0398   0.0637   0.0107   0.0099   0.0271   0.00    0.0
2016/11/13 11:04:40.000  -42.425458297  173.533661766   315.8650   6  10   0.0328   0.0398   0.0637   0.0104   0.0099   0.0271   0.00    0.0
2016/11/13 11:04:41.000  -42.425458062  173.533662349   315.8234   6  10   0.0329   0.0400   0.0638   0.0106   0.0098   0.0271   0.00    0.0
2016/11/13 11:04:42.000  -42.425457871  173.533662864   315.7823   6  10   0.0329   0.0399   0.0639   0.0108   0.0095   0.0271   0.00    0.0
2016/11/13 11:04:43.000  -42.425458123  173.533662775   315.7432   6  10   0.0329   0.0399   0.0640   0.0106   0.0096   0.0272   0.00    0.0
2016/11/13 11:04:44.000  -42.425458024  173.533662786   315.7067   6  10   0.0329   0.0399   0.0640   0.0106   0.0097   0.0272   0.00    0.0
2016/11/13 11:04:45.000  -42.425458246  173.533662827   315.7028   6  10   0.0330   0.0399   0.0640   0.0104   0.0098   0.0272   0.00    0.0
2016/11/13 11:04:46.000  -42.425458551  173.533662919   315.6770   6  10   0.0330   0.0398   0.0641   0.0102   0.0100   0.0273   0.00    0.0
2016/11/13 11:04:47.000  -42.425458906  173.533662872   315.6577   6  10   0.0331   0.0400   0.0641   0.0103   0.0097   0.0273   0.00    0.0
2016/11/13 11:04:48.000  -42.425459573  173.533662961   315.6551   6  10   0.0331   0.0399   0.0643   0.0103   0.0096   0.0273   0.00    0.0
2016/11/13 11:04:49.000  -42.425459284  173.533663184   315.6866   6  10   0.0330   0.0400   0.0642   0.0106   0.0096   0.0272   0.00    0.0
2016/11/13 11:04:50.000  -42.425458328  173.533663729   315.6991   6  10   0.0330   0.0400   0.0642   0.0103   0.0097   0.0272   0.00    0.0
2016/11/13 11:04:51.000  -42.425457442  173.533663420   315.7039   6  10   0.0331   0.0400   0.0643   0.0102   0.0095   0.0274   0.00    0.0
2016/11/13 11:04:52.000  -42.425457823  173.533663134   315.7363   6  10   0.0332   0.0401   0.0645   0.0103   0.0095   0.0274   0.00    0.0
2016/11/13 11:04:53.000  -42.425458547  173.533662362   315.7222   6  10   0.0332   0.0400   0.0645   0.0104   0.0096   0.0274   0.00    0.0
2016/11/13 11:04:54.000  -42.425458844  173.533662533   315.7347   6  10   0.0330   0.0400   0.0645   0.0101   0.0098   0.0274   0.00    0.0
2016/11/13 11:04:55.000  -42.425459437  173.533663032   315.7786   6  10   0.0332   0.0400   0.0645   0.0104   0.0093   0.0274   0.00    0.0
2016/11/13 11:04:56.000  -42.425459392  173.533662721   315.7882   6  10   0.0332   0.0400   0.0646   0.0101   0.0098   0.0275   0.00    0.0
2016/11/13 11:04:57.000  -42.425458558  173.533662983   315.7624   6  10   0.0332   0.0401   0.0647   0.0104   0.0092   0.0274   0.00    0.0
2016/11/13 11:04:58.000  -42.425458308  173.533663214   315.7545   6  10   0.0353   0.0409   0.0678   0.0087   0.0072   0.0281   0.00    0.0
2016/11/13 11:04:59.000  -42.425458422  173.533662999   315.7390   6  10   0.0351   0.0409   0.0675   0.0088   0.0075   0.0281   0.00    0.0
2016/11/13 11:05:00.000  -42.425458680  173.533662809   315.7232   6  10   0.0349   0.0408   0.0672   0.0090   0.0077   0.0280   0.00    0.0
2016/11/13 11:05:01.000  -42.425458715  173.533662963   315.7048   6  10   0.0350   0.0408   0.0675   0.0087   0.0076   0.0281   0.00    0.0
2016/11/13 11:05:02.000  -42.425458715  173.533662970   315.7092   6  10   0.0353   0.0409   0.0679   0.0086   0.0072   0.0281   0.00    0.0
2016/11/13 11:05:03.000  -42.425458765  173.533662556   315.7334   6  10   0.0333   0.0401   0.0649   0.0099   0.0092   0.0275   0.00    0.0
2016/11/13 11:05:04.000  -42.425458674  173.533662279   315.7525   6  10   0.0333   0.0401   0.0650   0.0099   0.0093   0.0276   0.00    0.0
2016/11/13 11:05:05.000  -42.425458568  173.533661920   315.7568   6  10   0.0332   0.0401   0.0650   0.0100   0.0093   0.0276   0.00    0.0
2016/11/13 11:05:06.000  -42.425458345  173.533662004   315.7589   6  10   0.0333   0.0401   0.0650   0.0102   0.0092   0.0277   0.00    0.0
2016/11/13 11:05:07.000  -42.425458205  173.533662198   315.7491   6  10   0.0333   0.0401   0.0652   0.0100   0.0091   0.0277   0.00    0.0
2016/11/13 11:05:08.000  -42.425458391  173.533662050   315.7437   6  10   0.0333   0.0401   0.0652   0.0098   0.0095   0.0277   0.00    0.0
2016/11/13 11:05:09.000  -42.425458427  173.533662101   315.7448   6  10   0.0333   0.0401   0.0652   0.0098   0.0092   0.0277   0.00    0.0
2016/11/13 11:05:10.000  -42.425458399  173.533662336   315.7450   6  10   0.0333   0.0401   0.0653   0.0098   0.0093   0.0277   0.00    0.0
2016/11/13 11:05:11.000  -42.425458400  173.533662564   315.7540   6  10   0.0333   0.0402   0.0654   0.0099   0.0090   0.0278   0.00    0.0
2016/11/13 11:05:12.000  -42.425458540  173.533662710   315.7420   6  10   0.0334   0.0402   0.0654   0.0099   0.0092   0.0278   0.00    0.0
2016/11/13 11:05:13.000  -42.425458522  173.533662737   315.7421   6  10   0.0335   0.0402   0.0655   0.0098   0.0091   0.0278   0.00    0.0
2016/11/13 11:05:14.000  -42.425458522  173.533662686   315.7385   6  10   0.0334   0.0402   0.0656   0.0098   0.0090   0.0278   0.00    0.0
2016/11/13 11:05:15.000  -42.425458466  173.533662716   315.7510   6  10   0.0335   0.0401   0.0655   0.0098   0.0089   0.0278   0.00    0.0
2016/11/13 11:05:16.000  -42.425458478  173.533662755   315.7581   6  10   0.0335   0.0402   0.0656   0.0097   0.0088   0.0279   0.00    0.0
2016/11/13 11:05:17.000  -42.425458534  173.533662836   315.7669   6  10   0.0335   0.0401   0.0657   0.0096   0.0091   0.0279   0.00    0.0
2016/11/13 11:05:18.000  -42.425458614  173.533662874   315.7555   6  10   0.0335   0.0402   0.0658   0.0095   0.0094   0.0279   0.00    0.0
2016/11/13 11:05:19.000  -42.425458729  173.533662744   315.7451   6  10   0.0334   0.0402   0.0658   0.0098   0.0088   0.0278   0.00    0.0
2016/11/13 11:05:20.000  -42.425458647  173.533662780   315.7509   6  10   0.0336   0.0402   0.0659   0.0096   0.0091   0.0279   0.00    0.0
2016/11/13 11:05:21.000  -42.425458595  173.533662844   315.7599   6  10   0.0335   0.0402   0.0660   0.0098   0.0087   0.0279   0.00    0.0
2016/11/13 11:05:22.000  -42.425458552  173.533662817   315.7616   6  10   0.0336   0.0403   0.0661   0.0098   0.0085   0.0280   0.00    0.0
2016/11/13 11:05:23.000  -42.425458575  173.533662719   315.7625   6  10   0.0336   0.0402   0.0661   0.0095   0.0090   0.0280   0.00    0.0
2016/11/13 11:05:24.000  -42.425458709  173.533662676   315.7553   6  10   0.0336   0.0403   0.0661   0.0097   0.0087   0.0280   0.00    0.0
2016/11/13 11:05:25.000  -42.425458814  173.533662670   315.7578   6  10   0.0337   0.0402   0.0662   0.0093   0.0090   0.0281   0.00    0.0
2016/11/13 11:05:26.000  -42.425458650  173.533662696   315.7672   6  10   0.0337   0.0403   0.0662   0.0096   0.0086   0.0281   0.00    0.0
2016/11/13 11:05:27.000  -42.425458480  173.533662758   315.7631   6  10   0.0337   0.0403   0.0663   0.0096   0.0087   0.0281   0.00    0.0
2016/11/13 11:05:28.000  -42.425458530  173.533662675   315.7628   6  10   0.0337   0.0403   0.0664   0.0093   0.0087   0.0281   0.00    0.0
2016/11/13 11:05:29.000  -42.425458659  173.533662801   315.7564   6  10   0.0337   0.0403   0.0664   0.0095   0.0086   0.0281   0.00    0.0
2016/11/13 11:05:30.000  -42.425458748  173.533662899   315.7527   6  10   0.0337   0.0404   0.0664   0.0095   0.0088   0.0281   0.00    0.0
2016/11/13 11:05:31.000  -42.425458762  173.533662828   315.7501   6  10   0.0338   0.0404   0.0665   0.0094   0.0087   0.0281   0.00    0.0
2016/11/13 11:05:32.000  -42.425458538  173.533662693   315.7509   6  10   0.0338   0.0403   0.0666   0.0093   0.0087   0.0282   0.00    0.0
2016/11/13 11:05:33.000  -42.425458383  173.533662631   315.7492   6  10   0.0338   0.0403   0.0666   0.0091   0.0087   0.0282   0.00    0.0
2016/11/13 11:05:34.000  -42.425458512  173.533662656   315.7499   6  10   0.0338   0.0404   0.0666   0.0095   0.0085   0.0282   0.00    0.0
2016/11/13 11:05:35.000  -42.425458485  173.533662682   315.7504   6  10   0.0337   0.0404   0.0667   0.0095   0.0082   0.0281   0.00    0.0
2016/11/13 11:05:36.000  -42.425458452  173.533662684   315.7511   6  10   0.0338   0.0404   0.0667   0.0093   0.0083   0.0283   0.00    0.0
2016/11/13 11:05:37.000  -42.425458511  173.533662698   315.7543   6  10   0.0339   0.0404   0.0668   0.0094   0.0084   0.0283   0.00    0.0
2016/11/13 11:05:38.000  -42.425458546  173.533662626   315.7588   6  10   0.0339   0.0404   0.0668   0.0091   0.0086   0.0283   0.00    0.0
2016/11/13 11:05:39.000  -42.425458568  173.533662715   315.7543   6  10   0.0339   0.0404   0.0669   0.0092   0.0085   0.0284   0.00    0.0
2016/11/13 11:05:40.000  -42.425458544  173.533662911   315.7614   6  10   0.0339   0.0404   0.0670   0.0092   0.0083   0.0283   0.00    0.0
2016/11/13 11:05:41.000  -42.425458520  173.533662927   315.7606   6  10   0.0339   0.0405   0.0670   0.0089   0.0087   0.0284   0.00    0.0
2016/11/13 11:05:42.000  -42.425458522  173.533662798   315.7550   6  10   0.0340   0.0404   0.0670   0.0089   0.0083   0.0284   0.00    0.0
2016/11/13 11:05:43.000  -42.425458551  173.533662587   315.7582   6  10   0.0339   0.0405   0.0671   0.0090   0.0082   0.0284   0.00    0.0
2016/11/13 11:05:44.000  -42.425458611  173.533662544   315.7647   6  10   0.0339   0.0404   0.0672   0.0090   0.0084   0.0284   0.00    0.0
2016/11/13 11:05:45.000  -42.425458612  173.533662529   315.7711   6  10   0.0340   0.0405   0.0672   0.0090   0.0084   0.0284   0.00    0.0
2016/11/13 11:05:46.000  -42.425458583  173.533662493   315.7705   6  10   0.0340   0.0405   0.0673   0.0090   0.0082   0.0284   0.00    0.0
2016/11/13 11:05:47.000  -42.425458427  173.533662583   315.7731   6  10   0.0341   0.0405   0.0674   0.0088   0.0084   0.0285   0.00    0.0
2016/11/13 11:05:48.000  -42.425458369  173.533662706   315.7660   6  10   0.0340   0.0405   0.0674   0.0089   0.0083   0.0285   0.00    0.0
2016/11/13 11:05:49.000  -42.425458386  173.533662719   315.7572   6  10   0.0340   0.0405   0.0674   0.0090   0.0081   0.0285   0.00    0.0
2016/11/13 11:05:50.000  -42.425458527  173.533662681   315.7627   6  10   0.0341   0.0405   0.0674   0.0087   0.0084   0.0285   0.00    0.0
2016/11/13 11:05:51.000  -42.425458698  173.533662761   315.7648   6  10   0.0341   0.0406   0.0676   0.0090   0.0080   0.0286   0.00    0.0
2016/11/13 11:05:52.000  -42.425458691  173.533662788   315.7654   6  10   0.0342   0.0406   0.0677   0.0086   0.0084   0.0287   0.00    0.0
2016/11/13 11:05:53.000  -42.425458579  173.533662861   315.7599   6  10   0.0341   0.0405   0.0677   0.0087   0.0082   0.0286   0.00    0.0
2016/11/13 11:05:54.000  -42.425458518  173.533662856   315.7651   6  10   0.0342   0.0406   0.0677   0.0087   0.0082   0.0287   0.00    0.0
2016/11/13 11:05:55.000  -42.425458549  173.533662810   315.7716   6  10   0.0341   0.0406   0.0678   0.0089   0.0080   0.0286   0.00    0.0
2016/11/13 11:05:56.000  -42.425458621  173.533662705   315.7711   6  10   0.0342   0.0405   0.0678   0.0089   0.0079   0.0287   0.00    0.0
2016/11/13 11:05:57.000  -42.425458600  173.533662663   315.7715   6  10   0.0342   0.0406   0.0679   0.0088   0.0079   0.0287   0.00    0.0
2016/11/13 11:05:58.000  -42.425458502  173.533662641   315.7825   6  10   0.0343   0.0406   0.0679   0.0088   0.0079   0.0287   0.00    0.0
2016/11/13 11:05:59.000  -42.425458454  173.533662659   315.7921   6  10   0.0342   0.0406   0.0680   0.0085   0.0079   0.0288   0.00    0.0
2016/11/13 11:06:00.000  -42.425458461  173.533662718   315.7912   6  10   0.0342   0.0406   0.0680   0.0087   0.0080   0.0287   0.00    0.0
2016/11/13 11:06:01.000  -42.425458555  173.533662753   315.7861   6  10   0.0343   0.0406   0.0681   0.0086   0.0079   0.0287   0.00    0.0
2016/11/13 11:06:02.000  -42.425458584  173.533662790   315.7798   6  10   0.0343   0.0406   0.0681   0.0087   0.0078   0.0288   0.00    0.0
2016/11/13 11:06:03.000  -42.425458560  173.533662705   315.7805   6  10   0.0343   0.0406   0.0682   0.0084   0.0081   0.0288   0.00    0.0
2016/11/13 11:06:04.000  -42.425458499  173.533662746   315.7876   6  10   0.0343   0.0407   0.0683   0.0086   0.0078   0.0288   0.00    0.0
2016/11/13 11:06:05.000  -42.425458481  173.533662726   315.7902   6  10   0.0343   0.0407   0.0683   0.0086   0.0079   0.0288   0.00    0.0
2016/11/13 11:06:06.000  -42.425458449  173.533662654   315.7880   6  10   0.0343   0.0406   0.0683   0.0086   0.0077   0.0288   0.00    0.0
2016/11/13 11:06:07.000  -42.425458470  173.533662618   315.7883   6  10   0.0344   0.0406   0.0684   0.0085   0.0080   0.0289   0.00    0.0
2016/11/13 11:06:08.000  -42.425458525  173.533662645   315.7928   6  10   0.0344   0.0407   0.0685   0.0086   0.0077   0.0289   0.00    0.0
2016/11/13 11:06:09.000  -42.425458571  173.533662743   315.7931   6  10   0.0344   0.0407   0.0685   0.0086   0.0079   0.0289   0.00    0.0
2016/11/13 11:06:10.000  -42.425458553  173.533662810   315.8010   6  10   0.0344   0.0406   0.0686   0.0084   0.0078   0.0289   0.00    0.0
2016/11/13 11:06:11.000  -42.425458569  173.533662867   315.7965   6  10   0.0345   0.0407   0.0686   0.0084   0.0078   0.0289   0.00    0.0
2016/11/13 11:06:12.000  -42.425458488  173.533662897   315.7994   6  10   0.0344   0.0407   0.0688   0.0086   0.0074   0.0290   0.00    0.0
2016/11/13 11:06:13.000  -42.425458427  173.533662856   315.7988   6  10   0.0345   0.0407   0.0687   0.0082   0.0079   0.0290   0.00    0.0
2016/11/13 11:06:14.000  -42.425458460  173.533662732   315.7961   6  10   0.0345   0.0408   0.0688   0.0085   0.0074   0.0290   0.00    0.0
2016/11/13 11:06:15.000  -42.425458512  173.533662602   315.7891   6  10   0.0345   0.0408   0.0688   0.0083   0.0076   0.0291   0.00    0.0
2016/11/13 11:06:16.000  -42.425458502  173.533662512   315.7938   6  10   0.0345   0.0407   0.0689   0.0084   0.0076   0.0291   0.00    0.0
2016/11/13 11:06:17.000  -42.425458446  173.533662600   315.8047   6  10   0.0345   0.0408   0.0689   0.0085   0.0077   0.0291   0.00    0.0
2016/11/13 11:06:18.000  -42.425458409  173.533662704   315.8068   6  10   0.0345   0.0408   0.0690   0.0084   0.0075   0.0291   0.00    0.0
2016/11/13 11:06:19.000  -42.425458495  173.533662716   315.8017   6  10   0.0345   0.0408   0.0691   0.0083   0.0074   0.0291   0.00    0.0
2016/11/13 11:06:20.000  -42.425458502  173.533662680   315.7983   6  10   0.0345   0.0409   0.0691   0.0082   0.0076   0.0291   0.00    0.0
2016/11/13 11:06:21.000  -42.425458556  173.533662691   315.7976   6  10   0.0346   0.0408   0.0692   0.0083   0.0076   0.0291   0.00    0.0
2016/11/13 11:06:22.000  -42.425458554  173.533662674   315.8012   6  10   0.0347   0.0409   0.0692   0.0083   0.0075   0.0291   0.00    0.0
2016/11/13 11:06:23.000  -42.425458516  173.533662752   315.7902   6  10   0.0346   0.0409   0.0693   0.0082   0.0075   0.0291   0.00    0.0
2016/11/13 11:06:24.000  -42.425458501  173.533662763   315.7999   6  10   0.0347   0.0409   0.0693   0.0082   0.0074   0.0292   0.00    0.0
2016/11/13 11:06:25.000  -42.425458534  173.533662758   315.8036   6  10   0.0347   0.0408   0.0694   0.0082   0.0073   0.0292   0.00    0.0
2016/11/13 11:06:26.000  -42.425458505  173.533662649   315.8051   6  10   0.0346   0.0408   0.0694   0.0082   0.0076   0.0292   0.00    0.0
2016/11/13 11:06:27.000  -42.425458498  173.533662618   315.8046   6  10   0.0347   0.0409   0.0695   0.0081   0.0073   0.0292   0.00    0.0
2016/11/13 11:06:28.000  -42.425458519  173.533662634   315.8026   6  10   0.0347   0.0410   0.0696   0.0080   0.0073   0.0293   0.00    0.0
2016/11/13 11:06:29.000  -42.425458479  173.533662630   315.8097   6  10   0.0347   0.0409   0.0695   0.0078   0.0076   0.0292   0.00    0.0
2016/11/13 11:06:30.000  -42.425458525  173.533662630   315.8086   6  10   0.0347   0.0409   0.0696   0.0082   0.0074   0.0293   0.00    0.0
2016/11/13 11:06:31.000  -42.425458494  173.533662623   315.8023   6  10   0.0347   0.0410   0.0697   0.0082   0.0074   0.0293   0.00    0.0
2016/11/13 11:06:32.000  -42.425458486  173.533662626   315.8066   6  10   0.0348   0.0409   0.0697   0.0079   0.0075   0.0293   0.00    0.0
2016/11/13 11:06:33.000  -42.425458407  173.533662608   315.7952   6  10   0.0348   0.0410   0.0698   0.0079   0.0070   0.0293   0.00    0.0
2016/11/13 11:06:34.000  -42.425458448  173.533662654   315.7868   6  10   0.0349   0.0409   0.0698   0.0079   0.0072   0.0294   0.00    0.0
2016/11/13 11:06:35.000  -42.425458469  173.533662646   315.7852   6  10   0.0348   0.0409   0.0699   0.0081   0.0072   0.0293   0.00    0.0
2016/11/13 11:06:36.000  -42.425458496  173.533662590   315.7969   6  10   0.0348   0.0410   0.0699   0.0082   0.0070   0.0293   0.00    0.0
2016/11/13 11:06:37.000  -42.425458520  173.533662581   315.7978   6  10   0.0348   0.0410   0.0700   0.0078   0.0072   0.0294   0.00    0.0
2016/11/13 11:06:38.000  -42.425458535  173.533662624   315.8016   6  10   0.0349   0.0410   0.0700   0.0079   0.0072   0.0294   0.00    0.0
2016/11/13 11:06:39.000  -42.425458567  173.533662686   315.7988   6  10   0.0348   0.0410   0.0701   0.0077   0.0070   0.0294   0.00    0.0
2016/11/13 11:06:40.000  -42.425458569  173.533662704   315.8019   6  10   0.0348   0.0410   0.0701   0.0077   0.0074   0.0293   0.00    0.0
2016/11/13 11:06:41.000  -42.425458583  173.533662744   315.8023   6  10   0.0349   0.0410   0.0702   0.0078   0.0072   0.0294   0.00    0.0
2016/11/13 11:06:42.000  -42.425458559  173.533662749   315.8062   6  10   0.0349   0.0410   0.0703   0.0078   0.0071   0.0295   0.00    0.0
2016/11/13 11:06:43.000  -42.425458589  173.533662748   315.8061   6  10   0.0350   0.0410   0.0703   0.0076   0.0072   0.0295   0.00    0.0
2016/11/13 11:06:44.000  -42.425458523  173.533662745   315.8092   6  10   0.0349   0.0410   0.0703   0.0076   0.0069   0.0294   0.00    0.0
2016/11/13 11:06:45.000  -42.425458456  173.533662718   315.7992   6  10   0.0350   0.0410   0.0704   0.0075   0.0073   0.0295   0.00    0.0
2016/11/13 11:06:46.000  -42.425458437  173.533662651   315.8005   6  10   0.0349   0.0410   0.0704   0.0077   0.0068   0.0296   0.00    0.0
2016/11/13 11:06:47.000  -42.425458460  173.533662586   315.8018   6  10   0.0350   0.0411   0.0705   0.0078   0.0067   0.0295   0.00    0.0
2016/11/13 11:06:48.000  -42.425458502  173.533662543   315.8071   6  10   0.0350   0.0411   0.0705   0.0075   0.0070   0.0295   0.00    0.0
2016/11/13 11:06:49.000  -42.425458498  173.533662604   315.8104   6  10   0.0351   0.0411   0.0706   0.0078   0.0069   0.0296   0.00    0.0
2016/11/13 11:06:50.000  -42.425458515  173.533662721   315.8040   6  10   0.0350   0.0411   0.0706   0.0076   0.0069   0.0295   0.00    0.0
2016/11/13 11:06:51.000  -42.425458513  173.533662683   315.8050   6  10   0.0350   0.0411   0.0707   0.0076   0.0068   0.0296   0.00    0.0
2016/11/13 11:06:52.000  -42.425458526  173.533662637   315.8090   6  10   0.0351   0.0411   0.0707   0.0075   0.0068   0.0296   0.00    0.0
2016/11/13 11:06:53.000  -42.425458541  173.533662701   315.8113   6  10   0.0351   0.0411   0.0708   0.0075   0.0070   0.0296   0.00    0.0
2016/11/13 11:06:54.000  -42.425458517  173.533662749   315.8102   6  10   0.0351   0.0411   0.0708   0.0075   0.0067   0.0296   0.00    0.0
2016/11/13 11:06:55.000  -42.425458508  173.533662772   315.8095   6  10   0.0351   0.0411   0.0709   0.0075   0.0069   0.0296   0.00    0.0
2016/11/13 11:06:56.000  -42.425458536  173.533662789   315.8213   6  10   0.0351   0.0411   0.0709   0.0074   0.0070   0.0296   0.00    0.0
2016/11/13 11:06:57.000  -42.425458557  173.533662759   315.8142   6  10   0.0352   0.0411   0.0710   0.0076   0.0067   0.0297   0.00    0.0
2016/11/13 11:06:58.000  -42.425458572  173.533662604   315.8158   6  10   0.0352   0.0412   0.0710   0.0075   0.0066   0.0296   0.00    0.0
2016/11/13 11:06:59.000  -42.425458516  173.533662485   315.8172   6  10   0.0351   0.0411   0.0711   0.0078   0.0062   0.0297   0.00    0.0
